{
  "source_file": "datas/01_raw/全部雨量站.xls",
  "sheet_name": "雨量站列表查询",
  "station_count": 7648,
  "duplicate_station_id_count": 2,
  "skipped_missing_coordinate_count": 34,
  "stations": [
    {
      "station_id": "0090820009",
      "system_id": "FXLY0160",
      "station_name": "苇子水水库",
      "river_name": "",
      "basin_name": "",
      "longitude": 115.87344,
      "latitude": 40.156541,
      "station_location": "",
      "admin_division_code": "110109000000",
      "admin_authority": "永定河管理处",
      "admin_division_name": "门头沟区",
      "station_level": "10",
      "area_code": "110100",
      "source_row_index": 1128
    },
    {
      "station_id": "01303A3200",
      "system_id": "FXPP3100",
      "station_name": "太师屯",
      "river_name": "清水河",
      "basin_name": "潮白河流域",
      "longitude": 117.118248,
      "latitude": 40.533834,
      "station_location": "太师屯镇中心街51号北京沣泉水厂院内",
      "admin_division_code": "110118000000",
      "admin_authority": "水文总站",
      "admin_division_name": "密云区",
      "station_level": "11",
      "area_code": "110100",
      "source_row_index": 2562
    },
    {
      "station_id": "01303A5000",
      "system_id": "FXPP3101",
      "station_name": "龙潭沟村",
      "river_name": "龙潭沟",
      "basin_name": "潮白河流域",
      "longitude": 117.062033,
      "latitude": 40.496812,
      "station_location": "太师屯镇龙潭沟村",
      "admin_division_code": "110118000000",
      "admin_authority": "水文总站",
      "admin_division_name": "密云区",
      "station_level": "11",
      "area_code": "110100",
      "source_row_index": 2563
    },
    {
      "station_id": "01303A5001",
      "system_id": "FXPP3102",
      "station_name": "前八家庄村",
      "river_name": "潮河",
      "basin_name": "潮白河流域",
      "longitude": 117.026164,
      "latitude": 40.494225,
      "station_location": "太师屯镇前八家庄村",
      "admin_division_code": "110118000000",
      "admin_authority": "水文总站",
      "admin_division_name": "密云区",
      "station_level": "11",
      "area_code": "110100",
      "source_row_index": 2564
    },
    {
      "station_id": "01303A5002",
      "system_id": "FXPP3103",
      "station_name": "水漳村",
      "river_name": "水沙河",
      "basin_name": "潮白河流域",
      "longitude": 116.891874,
      "latitude": 40.419767,
      "station_location": "穆家峪镇水漳村",
      "admin_division_code": "110118000000",
      "admin_authority": "水文总站",
      "admin_division_name": "密云区",
      "station_level": "11",
      "area_code": "110100",
      "source_row_index": 2565
    },
    {
      "station_id": "01303A5003",
      "system_id": "FXPP3104",
      "station_name": "石城村",
      "river_name": "九道湾",
      "basin_name": "潮白河流域",
      "longitude": 116.815705,
      "latitude": 40.541244,
      "station_location": "石城镇石城村",
      "admin_division_code": "110118000000",
      "admin_authority": "水文总站",
      "admin_division_name": "密云区",
      "station_level": "11",
      "area_code": "110100",
      "source_row_index": 2566
    },
    {
      "station_id": "01303A5004",
      "system_id": "FXPP3105",
      "station_name": "张家坟村",
      "river_name": "白河",
      "basin_name": "潮白河流域",
      "longitude": 116.78184,
      "latitude": 40.612873,
      "station_location": "石城镇张家坟村",
      "admin_division_code": "110118000000",
      "admin_authority": "水文总站",
      "admin_division_name": "密云区",
      "station_level": "11",
      "area_code": "110100",
      "source_row_index": 2567
    },
    {
      "station_id": "01303A5005",
      "system_id": "FXPP3106",
      "station_name": "孙家沟",
      "river_name": "后焦家坞河",
      "basin_name": "潮白河流域",
      "longitude": 117.055428,
      "latitude": 40.345036,
      "station_location": "巨各庄镇孙家沟",
      "admin_division_code": "110118000000",
      "admin_authority": "水文总站",
      "admin_division_name": "密云区",
      "station_level": "11",
      "area_code": "110100",
      "source_row_index": 2568
    },
    {
      "station_id": "01303A5006",
      "system_id": "FXPP3107",
      "station_name": "半截峪",
      "river_name": "插旗沟",
      "basin_name": "潮白河流域",
      "longitude": 117.051161,
      "latitude": 40.429082,
      "station_location": "巨各庄镇半截峪",
      "admin_division_code": "110118000000",
      "admin_authority": "水文总站",
      "admin_division_name": "密云区",
      "station_level": "11",
      "area_code": "110100",
      "source_row_index": 2569
    },
    {
      "station_id": "01303A5007",
      "system_id": "FXPP3108",
      "station_name": "北庄村",
      "river_name": "清水河",
      "basin_name": "潮白河流域",
      "longitude": 117.162649,
      "latitude": 40.519078,
      "station_location": "北庄镇北庄村",
      "admin_division_code": "110118000000",
      "admin_authority": "水文总站",
      "admin_division_name": "密云区",
      "station_level": "11",
      "area_code": "110100",
      "source_row_index": 2570
    },
    {
      "station_id": "01303A5008",
      "system_id": "FXPP3109",
      "station_name": "秀才峪",
      "river_name": "秀才峪沟",
      "basin_name": "潮白河流域",
      "longitude": 116.927565,
      "latitude": 40.594132,
      "station_location": "不老屯镇秀才峪",
      "admin_division_code": "110118000000",
      "admin_authority": "水文总站",
      "admin_division_name": "密云区",
      "station_level": "11",
      "area_code": "110100",
      "source_row_index": 2571
    },
    {
      "station_id": "01303A5009",
      "system_id": "FXPP3110",
      "station_name": "遥桥峪村",
      "river_name": "安达木河",
      "basin_name": "潮白河流域",
      "longitude": 117.382775,
      "latitude": 40.632433,
      "station_location": "新城子镇遥桥峪村",
      "admin_division_code": "110118000000",
      "admin_authority": "水文总站",
      "admin_division_name": "密云区",
      "station_level": "11",
      "area_code": "110100",
      "source_row_index": 2572
    },
    {
      "station_id": "01303A5010",
      "system_id": "FXPP3111",
      "station_name": "车道峪",
      "river_name": "安达木河",
      "basin_name": "潮白河流域",
      "longitude": 117.192404,
      "latitude": 40.580354,
      "station_location": "太师屯镇车道峪",
      "admin_division_code": "110118000000",
      "admin_authority": "水文总站",
      "admin_division_name": "密云区",
      "station_level": "11",
      "area_code": "110100",
      "source_row_index": 2573
    },
    {
      "station_id": "01303A5011",
      "system_id": "FXPP3112",
      "station_name": "涝洼村南沟",
      "river_name": "安达木河",
      "basin_name": "潮白河流域",
      "longitude": 117.238781,
      "latitude": 40.622417,
      "station_location": "古北口镇涝洼村南沟",
      "admin_division_code": "110118000000",
      "admin_authority": "水文总站",
      "admin_division_name": "密云区",
      "station_level": "11",
      "area_code": "110100",
      "source_row_index": 2574
    },
    {
      "station_id": "01303A5012",
      "system_id": "FXPP3113",
      "station_name": "小开岭村",
      "river_name": "东河",
      "basin_name": "潮白河流域",
      "longitude": 117.109339,
      "latitude": 40.615488,
      "station_location": "高岭镇小开岭村",
      "admin_division_code": "110118000000",
      "admin_authority": "水文总站",
      "admin_division_name": "密云区",
      "station_level": "11",
      "area_code": "110100",
      "source_row_index": 2575
    },
    {
      "station_id": "01303A5013",
      "system_id": "FXPP3114",
      "station_name": "水泉子",
      "river_name": "牤牛河",
      "basin_name": "潮白河流域",
      "longitude": 116.994864,
      "latitude": 40.640912,
      "station_location": "不老屯镇陈家峪水泉子",
      "admin_division_code": "110118000000",
      "admin_authority": "水文总站",
      "admin_division_name": "密云区",
      "station_level": "11",
      "area_code": "110100",
      "source_row_index": 2576
    },
    {
      "station_id": "01303A5014",
      "system_id": "FXPP3115",
      "station_name": "朱家裕",
      "river_name": "白马关河",
      "basin_name": "潮白河流域",
      "longitude": 116.898568,
      "latitude": 40.67926,
      "station_location": "冯家峪镇朱家裕",
      "admin_division_code": "110118000000",
      "admin_authority": "水文总站",
      "admin_division_name": "密云区",
      "station_level": "11",
      "area_code": "110100",
      "source_row_index": 2577
    },
    {
      "station_id": "01303A5016",
      "system_id": "FXPP3116",
      "station_name": "南台子村",
      "river_name": "汤河东沟",
      "basin_name": "潮白河流域",
      "longitude": 116.799278,
      "latitude": 40.712116,
      "station_location": "冯家峪镇南台子村",
      "admin_division_code": "110118000000",
      "admin_authority": "水文总站",
      "admin_division_name": "密云区",
      "station_level": "11",
      "area_code": "110100",
      "source_row_index": 2578
    },
    {
      "station_id": "01303A5017",
      "system_id": "FXPP3117",
      "station_name": "红星村 莫岭",
      "river_name": "白庙子沟",
      "basin_name": "潮白河流域",
      "longitude": 116.734143,
      "latitude": 40.650743,
      "station_location": "石城镇红星村",
      "admin_division_code": "110118000000",
      "admin_authority": "水文总站",
      "admin_division_name": "密云区",
      "station_level": "11",
      "area_code": "110100",
      "source_row_index": 2579
    },
    {
      "station_id": "01303A5018",
      "system_id": "FXPP3118",
      "station_name": "山神庙",
      "river_name": "蛇鱼川",
      "basin_name": "潮白河流域",
      "longitude": 116.809921,
      "latitude": 40.645957,
      "station_location": "石城镇山神庙",
      "admin_division_code": "110118000000",
      "admin_authority": "水文总站",
      "admin_division_name": "密云区",
      "station_level": "11",
      "area_code": "110100",
      "source_row_index": 2580
    },
    {
      "station_id": "01303A5019",
      "system_id": "FXPP3119",
      "station_name": "大树洼村",
      "river_name": "坡头沟",
      "basin_name": "潮白河流域",
      "longitude": 117.322452,
      "latitude": 40.594498,
      "station_location": "新城子镇大树洼村",
      "admin_division_code": "110118000000",
      "admin_authority": "水文总站",
      "admin_division_name": "密云区",
      "station_level": "11",
      "area_code": "110100",
      "source_row_index": 2581
    },
    {
      "station_id": "01303A5020",
      "system_id": "FXPP3120",
      "station_name": "石匣村",
      "river_name": "潮河",
      "basin_name": "潮白河流域",
      "longitude": 117.081871,
      "latitude": 40.579191,
      "station_location": "高岭镇石匣村",
      "admin_division_code": "110118000000",
      "admin_authority": "水文总站",
      "admin_division_name": "密云区",
      "station_level": "11",
      "area_code": "110100",
      "source_row_index": 2582
    },
    {
      "station_id": "01303A5045",
      "system_id": "FXPP3121",
      "station_name": "番字牌村",
      "river_name": "番字牌村沟",
      "basin_name": "潮白河流域",
      "longitude": 116.886036,
      "latitude": 40.739033,
      "station_location": "冯家峪镇番字牌村",
      "admin_division_code": "110118000000",
      "admin_authority": "水文总站",
      "admin_division_name": "密云区",
      "station_level": "11",
      "area_code": "110100",
      "source_row_index": 2583
    },
    {
      "station_id": "01303A7000",
      "system_id": "FXPP3122",
      "station_name": "梨园村",
      "river_name": "小清河",
      "basin_name": "大清河流域",
      "longitude": 116.12682,
      "latitude": 39.873211,
      "station_location": "长辛店镇梨园村",
      "admin_division_code": "110106000000",
      "admin_authority": "水文总站",
      "admin_division_name": "丰台区",
      "station_level": "11",
      "area_code": "110100",
      "source_row_index": 2584
    },
    {
      "station_id": "01303A7001",
      "system_id": "FXPP3123",
      "station_name": "后甫营",
      "river_name": "哑叭河",
      "basin_name": "大清河流域",
      "longitude": 116.085824,
      "latitude": 39.847277,
      "station_location": "王佐镇后甫营",
      "admin_division_code": "110106000000",
      "admin_authority": "水文总站",
      "admin_division_name": "丰台区",
      "station_level": "11",
      "area_code": "110100",
      "source_row_index": 2585
    },
    {
      "station_id": "01303A9000",
      "system_id": "FXPP3124",
      "station_name": "苗营村",
      "river_name": "前喇叭沟",
      "basin_name": "潮白河流域",
      "longitude": 116.559445,
      "latitude": 40.892915,
      "station_location": "喇叭沟门乡苗营村",
      "admin_division_code": "110116000000",
      "admin_authority": "水文总站",
      "admin_division_name": "怀柔区",
      "station_level": "11",
      "area_code": "110100",
      "source_row_index": 2586
    },
    {
      "station_id": "01303A9001",
      "system_id": "FXPP3125",
      "station_name": "西府营",
      "river_name": "汤河",
      "basin_name": "潮白河流域",
      "longitude": 116.63043,
      "latitude": 40.930569,
      "station_location": "喇叭沟门乡西府营村",
      "admin_division_code": "110116000000",
      "admin_authority": "水文总站",
      "admin_division_name": "怀柔区",
      "station_level": "11",
      "area_code": "110100",
      "source_row_index": 2587
    },
    {
      "station_id": "01303A9002",
      "system_id": "FXPP3126",
      "station_name": "长元村",
      "river_name": "长园河",
      "basin_name": "潮白河流域",
      "longitude": 116.580258,
      "latitude": 40.430118,
      "station_location": "雁栖镇长元村",
      "admin_division_code": "110116000000",
      "admin_authority": "水文总站",
      "admin_division_name": "怀柔区",
      "station_level": "11",
      "area_code": "110100",
      "source_row_index": 2588
    },
    {
      "station_id": "01303A9003",
      "system_id": "FXPP3127",
      "station_name": "二号沟门",
      "river_name": "庄户沟",
      "basin_name": "潮白河流域",
      "longitude": 116.55369,
      "latitude": 40.821979,
      "station_location": "汤河口镇二号沟门",
      "admin_division_code": "110116000000",
      "admin_authority": "水文总站",
      "admin_division_name": "怀柔区",
      "station_level": "11",
      "area_code": "110100",
      "source_row_index": 2589
    },
    {
      "station_id": "01303A9004",
      "system_id": "FXPP3128",
      "station_name": "八道河",
      "river_name": "雁栖河",
      "basin_name": "潮白河流域",
      "longitude": 116.568789,
      "latitude": 40.480967,
      "station_location": "雁栖镇八道河村",
      "admin_division_code": "110116000000",
      "admin_authority": "水文总站",
      "admin_division_name": "怀柔区",
      "station_level": "11",
      "area_code": "110100",
      "source_row_index": 2590
    },
    {
      "station_id": "01303A9005",
      "system_id": "FXPP3129",
      "station_name": "老西沟",
      "river_name": "汤河",
      "basin_name": "潮白河流域",
      "longitude": 116.72908,
      "latitude": 40.788589,
      "station_location": "长哨营乡老西沟",
      "admin_division_code": "110116000000",
      "admin_authority": "水文总站",
      "admin_division_name": "怀柔区",
      "station_level": "11",
      "area_code": "110100",
      "source_row_index": 2591
    },
    {
      "station_id": "01303A9006",
      "system_id": "FXPP3130",
      "station_name": "长哨营村",
      "river_name": "汤河",
      "basin_name": "潮白河流域",
      "longitude": 116.747805,
      "latitude": 40.785085,
      "station_location": "长哨营乡长哨营村",
      "admin_division_code": "110116000000",
      "admin_authority": "水文总站",
      "admin_division_name": "怀柔区",
      "station_level": "11",
      "area_code": "110100",
      "source_row_index": 2592
    },
    {
      "station_id": "01303A9007",
      "system_id": "FXPP3131",
      "station_name": "四渡河",
      "river_name": "怀九河",
      "basin_name": "潮白河流域",
      "longitude": 116.473268,
      "latitude": 40.33739,
      "station_location": "九渡河镇四渡河村",
      "admin_division_code": "110116000000",
      "admin_authority": "水文总站",
      "admin_division_name": "怀柔区",
      "station_level": "11",
      "area_code": "110100",
      "source_row_index": 2593
    },
    {
      "station_id": "01303A9008",
      "system_id": "FXPP3132",
      "station_name": "鹞子峪",
      "river_name": "鹞峪沟",
      "basin_name": "潮白河流域",
      "longitude": 116.322234,
      "latitude": 40.421754,
      "station_location": "九渡河镇鹞子峪",
      "admin_division_code": "110116000000",
      "admin_authority": "水文总站",
      "admin_division_name": "怀柔区",
      "station_level": "11",
      "area_code": "110100",
      "source_row_index": 2594
    },
    {
      "station_id": "01303A9009",
      "system_id": "FXPP3133",
      "station_name": "黄花镇",
      "river_name": "怀九河",
      "basin_name": "潮白河流域",
      "longitude": 116.357893,
      "latitude": 40.394379,
      "station_location": "九渡河镇黄花镇村",
      "admin_division_code": "110116000000",
      "admin_authority": "水文总站",
      "admin_division_name": "怀柔区",
      "station_level": "11",
      "area_code": "110100",
      "source_row_index": 2595
    },
    {
      "station_id": "01303A9010",
      "system_id": "FXPP3134",
      "station_name": "菜树甸",
      "river_name": "天河",
      "basin_name": "潮白河流域",
      "longitude": 116.485072,
      "latitude": 40.786177,
      "station_location": "宝山镇菜树甸",
      "admin_division_code": "110116000000",
      "admin_authority": "水文总站",
      "admin_division_name": "怀柔区",
      "station_level": "11",
      "area_code": "110100",
      "source_row_index": 2596
    },
    {
      "station_id": "01303A9011",
      "system_id": "FXPP3135",
      "station_name": "大沟门",
      "river_name": "菜食河",
      "basin_name": "潮白河流域",
      "longitude": 116.552347,
      "latitude": 40.69168,
      "station_location": "宝山镇大沟门",
      "admin_division_code": "110116000000",
      "admin_authority": "水文总站",
      "admin_division_name": "怀柔区",
      "station_level": "11",
      "area_code": "110100",
      "source_row_index": 2597
    },
    {
      "station_id": "01303A9012",
      "system_id": "FXPP3136",
      "station_name": "白木村",
      "river_name": "怀沙河",
      "basin_name": "潮白河流域",
      "longitude": 116.45997,
      "latitude": 40.422749,
      "station_location": "渤海镇白木村",
      "admin_division_code": "110116000000",
      "admin_authority": "水文总站",
      "admin_division_name": "怀柔区",
      "station_level": "11",
      "area_code": "110100",
      "source_row_index": 2598
    },
    {
      "station_id": "01303A9013",
      "system_id": "FXPP3137",
      "station_name": "汤河口",
      "river_name": "怀沙河",
      "basin_name": "潮白河流域",
      "longitude": 116.640644,
      "latitude": 40.71903,
      "station_location": "渤海镇汤河口",
      "admin_division_code": "110116000000",
      "admin_authority": "水文总站",
      "admin_division_name": "怀柔区",
      "station_level": "11",
      "area_code": "110100",
      "source_row_index": 2599
    },
    {
      "station_id": "01303A9014",
      "system_id": "FXPP3138",
      "station_name": "裕口村",
      "river_name": "怀九河",
      "basin_name": "潮白河流域",
      "longitude": 116.525556,
      "latitude": 40.344444,
      "station_location": "桥梓镇峪口村",
      "admin_division_code": "110116000000",
      "admin_authority": "水文总站",
      "admin_division_name": "怀柔区",
      "station_level": "11",
      "area_code": "110100",
      "source_row_index": 2600
    },
    {
      "station_id": "01303A9015",
      "system_id": "FXPP3139",
      "station_name": "老公营",
      "river_name": "琉璃河",
      "basin_name": "潮白河流域",
      "longitude": 116.624951,
      "latitude": 40.631878,
      "station_location": "琉璃庙镇老公营",
      "admin_division_code": "110116000000",
      "admin_authority": "水文总站",
      "admin_division_name": "怀柔区",
      "station_level": "11",
      "area_code": "110100",
      "source_row_index": 2601
    },
    {
      "station_id": "01303A9016",
      "system_id": "FXPP3140",
      "station_name": "孙胡沟",
      "river_name": "孙胡沟",
      "basin_name": "潮白河流域",
      "longitude": 116.595536,
      "latitude": 40.564767,
      "station_location": "琉璃庙镇孙胡沟",
      "admin_division_code": "110116000000",
      "admin_authority": "水文总站",
      "admin_division_name": "怀柔区",
      "station_level": "11",
      "area_code": "110100",
      "source_row_index": 2602
    },
    {
      "station_id": "01304A9000",
      "system_id": "FXPP3141",
      "station_name": "松棚村",
      "river_name": "洳河右支",
      "basin_name": "蓟运河流域",
      "longitude": 116.977339,
      "latitude": 40.256757,
      "station_location": "刘家店镇松棚村",
      "admin_division_code": "110117000000",
      "admin_authority": "水文总站",
      "admin_division_name": "平谷区",
      "station_level": "11",
      "area_code": "110100",
      "source_row_index": 2603
    },
    {
      "station_id": "01304A9001",
      "system_id": "FXPP3142",
      "station_name": "李家峪村",
      "river_name": "洳河",
      "basin_name": "蓟运河流域",
      "longitude": 117.015356,
      "latitude": 40.317778,
      "station_location": "大华山镇李家峪村",
      "admin_division_code": "110117000000",
      "admin_authority": "水文总站",
      "admin_division_name": "平谷区",
      "station_level": "11",
      "area_code": "110100",
      "source_row_index": 2604
    },
    {
      "station_id": "01304A9002",
      "system_id": "FXPP3143",
      "station_name": "苏子峪村",
      "river_name": "后北宫河",
      "basin_name": "蓟运河流域",
      "longitude": 117.085183,
      "latitude": 40.246489,
      "station_location": "大华山镇苏子峪村",
      "admin_division_code": "110117000000",
      "admin_authority": "水文总站",
      "admin_division_name": "平谷区",
      "station_level": "11",
      "area_code": "110100",
      "source_row_index": 2605
    },
    {
      "station_id": "01304A9003",
      "system_id": "FXPP3144",
      "station_name": "鱼子山村",
      "river_name": "鱼子山石河",
      "basin_name": "蓟运河流域",
      "longitude": 117.16028,
      "latitude": 40.22977,
      "station_location": "山东庄镇鱼子山村",
      "admin_division_code": "110117000000",
      "admin_authority": "水文总站",
      "admin_division_name": "平谷区",
      "station_level": "11",
      "area_code": "110100",
      "source_row_index": 2606
    },
    {
      "station_id": "01304A9004",
      "system_id": "FXPP3145",
      "station_name": "东马各庄",
      "river_name": "红石坎沟",
      "basin_name": "蓟运河流域",
      "longitude": 117.334756,
      "latitude": 40.184937,
      "station_location": "金海湖镇东马各庄村",
      "admin_division_code": "110117000000",
      "admin_authority": "水文总站",
      "admin_division_name": "平谷区",
      "station_level": "11",
      "area_code": "110100",
      "source_row_index": 2607
    },
    {
      "station_id": "01304A9005",
      "system_id": "FXPP3146",
      "station_name": "黄草窪村",
      "river_name": "红石坎沟",
      "basin_name": "蓟运河流域",
      "longitude": 117.332442,
      "latitude": 40.191294,
      "station_location": "金海湖镇黄草窪村",
      "admin_division_code": "110117000000",
      "admin_authority": "水文总站",
      "admin_division_name": "平谷区",
      "station_level": "11",
      "area_code": "110100",
      "source_row_index": 2608
    },
    {
      "station_id": "01304A9006",
      "system_id": "FXPP3147",
      "station_name": "水峪村",
      "river_name": "泃河",
      "basin_name": "蓟运河流域",
      "longitude": 117.279997,
      "latitude": 40.164512,
      "station_location": "金海湖镇水峪村",
      "admin_division_code": "110117000000",
      "admin_authority": "水文总站",
      "admin_division_name": "平谷区",
      "station_level": "11",
      "area_code": "110100",
      "source_row_index": 2609
    },
    {
      "station_id": "01304A9007",
      "system_id": "FXPP3148",
      "station_name": "北寨村",
      "river_name": "北寨石河",
      "basin_name": "蓟运河流域",
      "longitude": 117.201583,
      "latitude": 40.246275,
      "station_location": "南独乐河镇北寨村",
      "admin_division_code": "110117000000",
      "admin_authority": "水文总站",
      "admin_division_name": "平谷区",
      "station_level": "11",
      "area_code": "110100",
      "source_row_index": 2610
    },
    {
      "station_id": "01305A3769",
      "system_id": "FXPP3149",
      "station_name": "八大处",
      "river_name": "八引渠",
      "basin_name": "北运河流域",
      "longitude": 116.181184,
      "latitude": 39.958022,
      "station_location": "苹果园街道八大处公园院内",
      "admin_division_code": "110107000000",
      "admin_authority": "水文总站",
      "admin_division_name": "石景山区",
      "station_level": "11",
      "area_code": "110100",
      "source_row_index": 2611
    },
    {
      "station_id": "01305A5000",
      "system_id": "FXPP3150",
      "station_name": "漆园",
      "river_name": "漆园沟",
      "basin_name": "北运河流域",
      "longitude": 116.043177,
      "latitude": 40.158213,
      "station_location": "流村镇漆园",
      "admin_division_code": "110114000000",
      "admin_authority": "水文总站",
      "admin_division_name": "昌平区",
      "station_level": "11",
      "area_code": "110100",
      "source_row_index": 2612
    },
    {
      "station_id": "01305A5001",
      "system_id": "FXPP3151",
      "station_name": "桃峪口村",
      "river_name": "秦屯河",
      "basin_name": "北运河流域",
      "longitude": 116.439315,
      "latitude": 40.239917,
      "station_location": "兴寿镇桃峪口村",
      "admin_division_code": "110114000000",
      "admin_authority": "水文总站",
      "admin_division_name": "昌平区",
      "station_level": "11",
      "area_code": "110100",
      "source_row_index": 2613
    },
    {
      "station_id": "01305A5002",
      "system_id": "FXPP3152",
      "station_name": "高崖口村",
      "river_name": "高崖口左支一河",
      "basin_name": "北运河流域",
      "longitude": 115.982856,
      "latitude": 40.137409,
      "station_location": "流村镇高崖口村",
      "admin_division_code": "110114000000",
      "admin_authority": "水文总站",
      "admin_division_name": "昌平区",
      "station_level": "11",
      "area_code": "110100",
      "source_row_index": 2614
    },
    {
      "station_id": "01305A5003",
      "system_id": "FXPP3153",
      "station_name": "禾子涧村",
      "river_name": "白羊城沟",
      "basin_name": "永定河流域",
      "longitude": 115.933825,
      "latitude": 40.207434,
      "station_location": "流村镇禾子涧村",
      "admin_division_code": "110114000000",
      "admin_authority": "水文总站",
      "admin_division_name": "昌平区",
      "station_level": "11",
      "area_code": "110100",
      "source_row_index": 2615
    },
    {
      "station_id": "01305A5004",
      "system_id": "FXPP3154",
      "station_name": "菩萨鹿村",
      "river_name": "狼儿峪东沟",
      "basin_name": "北运河流域",
      "longitude": 115.98166,
      "latitude": 40.106851,
      "station_location": "流村镇菩萨鹿村",
      "admin_division_code": "110114000000",
      "admin_authority": "水文总站",
      "admin_division_name": "昌平区",
      "station_level": "11",
      "area_code": "110100",
      "source_row_index": 2616
    },
    {
      "station_id": "01305A5005",
      "system_id": "FXPP3155",
      "station_name": "木厂村",
      "river_name": "秦屯河",
      "basin_name": "北运河流域",
      "longitude": 116.417945,
      "latitude": 40.312339,
      "station_location": "延寿镇木厂村",
      "admin_division_code": "110114000000",
      "admin_authority": "水文总站",
      "admin_division_name": "昌平区",
      "station_level": "11",
      "area_code": "110100",
      "source_row_index": 2617
    },
    {
      "station_id": "01305A5006",
      "system_id": "FXPP3156",
      "station_name": "西湖村",
      "river_name": "沙沟河(蔺沟）",
      "basin_name": "北运河流域",
      "longitude": 116.313295,
      "latitude": 40.319824,
      "station_location": "延寿镇西湖村",
      "admin_division_code": "110114000000",
      "admin_authority": "水文总站",
      "admin_division_name": "昌平区",
      "station_level": "11",
      "area_code": "110100",
      "source_row_index": 2618
    },
    {
      "station_id": "01305A5007",
      "system_id": "FXPP3157",
      "station_name": "上庄村",
      "river_name": "沙沟河(蔺沟）",
      "basin_name": "北运河流域",
      "longitude": 116.362901,
      "latitude": 40.291244,
      "station_location": "兴寿镇上庄村",
      "admin_division_code": "110114000000",
      "admin_authority": "水文总站",
      "admin_division_name": "昌平区",
      "station_level": "11",
      "area_code": "110100",
      "source_row_index": 2619
    },
    {
      "station_id": "01305A6000",
      "system_id": "FXPP3158",
      "station_name": "鹫峰",
      "river_name": "柳林河",
      "basin_name": "北运河流域",
      "longitude": 116.091626,
      "latitude": 40.059975,
      "station_location": "北安河乡鹫峰",
      "admin_division_code": "110108000000",
      "admin_authority": "水文总站",
      "admin_division_name": "海淀区",
      "station_level": "11",
      "area_code": "110100",
      "source_row_index": 2620
    },
    {
      "station_id": "01307A0900",
      "system_id": "FXPP3159",
      "station_name": "礼贤",
      "river_name": "永定河",
      "basin_name": "永定河流域",
      "longitude": 116.236382,
      "latitude": 39.58504,
      "station_location": "庞各庄镇永定河管理所院内",
      "admin_division_code": "110115000000",
      "admin_authority": "水文总站",
      "admin_division_name": "大兴区",
      "station_level": "11",
      "area_code": "110100",
      "source_row_index": 2621
    },
    {
      "station_id": "01307A5000",
      "system_id": "FXPP3160",
      "station_name": "赵家台",
      "river_name": "刺猬河",
      "basin_name": "大清河流域",
      "longitude": 115.979298,
      "latitude": 39.918619,
      "station_location": "潭柘寺赵家台",
      "admin_division_code": "110109000000",
      "admin_authority": "水文总站",
      "admin_division_name": "门头沟区",
      "station_level": "11",
      "area_code": "110100",
      "source_row_index": 2622
    },
    {
      "station_id": "01307A5001",
      "system_id": "FXPP3161",
      "station_name": "爨底下",
      "river_name": "青龙涧沟",
      "basin_name": "永定河流域",
      "longitude": 115.652226,
      "latitude": 40.003416,
      "station_location": "斋堂镇爨底下",
      "admin_division_code": "110109000000",
      "admin_authority": "水文总站",
      "admin_division_name": "门头沟区",
      "station_level": "11",
      "area_code": "110100",
      "source_row_index": 2623
    },
    {
      "station_id": "01307A5002",
      "system_id": "FXPP3162",
      "station_name": "沿河城",
      "river_name": "沿河城沟",
      "basin_name": "永定河流域",
      "longitude": 115.718578,
      "latitude": 40.067379,
      "station_location": "斋堂镇沿河城村",
      "admin_division_code": "110109000000",
      "admin_authority": "水文总站",
      "admin_division_name": "门头沟区",
      "station_level": "11",
      "area_code": "110100",
      "source_row_index": 2624
    },
    {
      "station_id": "01307A5003",
      "system_id": "FXPP3163",
      "station_name": "杨家村",
      "river_name": "七里沟",
      "basin_name": "永定河流域",
      "longitude": 115.793946,
      "latitude": 39.951557,
      "station_location": "斋堂镇杨家村",
      "admin_division_code": "110109000000",
      "admin_authority": "水文总站",
      "admin_division_name": "门头沟区",
      "station_level": "11",
      "area_code": "110100",
      "source_row_index": 2625
    },
    {
      "station_id": "01307A5004",
      "system_id": "FXPP3164",
      "station_name": "樱桃沟",
      "river_name": "樱桃沟",
      "basin_name": "永定河流域",
      "longitude": 116.044444,
      "latitude": 40.040278,
      "station_location": "妙峰山樱桃沟",
      "admin_division_code": "110109000000",
      "admin_authority": "水文总站",
      "admin_division_name": "门头沟区",
      "station_level": "11",
      "area_code": "110100",
      "source_row_index": 2626
    },
    {
      "station_id": "01307A5005",
      "system_id": "FXPP3165",
      "station_name": "马套村",
      "river_name": "南石羊沟",
      "basin_name": "永定河流域",
      "longitude": 115.814942,
      "latitude": 40.12674,
      "station_location": "雁翅镇马套村",
      "admin_division_code": "110109000000",
      "admin_authority": "水文总站",
      "admin_division_name": "门头沟区",
      "station_level": "11",
      "area_code": "110100",
      "source_row_index": 2627
    },
    {
      "station_id": "01307A5006",
      "system_id": "FXPP3166",
      "station_name": "田庄",
      "river_name": "下马岭沟",
      "basin_name": "永定河流域",
      "longitude": 115.907284,
      "latitude": 40.085241,
      "station_location": "雁翅镇田庄",
      "admin_division_code": "110109000000",
      "admin_authority": "水文总站",
      "admin_division_name": "门头沟区",
      "station_level": "11",
      "area_code": "110100",
      "source_row_index": 2628
    },
    {
      "station_id": "01307A5007",
      "system_id": "FXPP3167",
      "station_name": "千军台",
      "river_name": "清水涧沟",
      "basin_name": "永定河流域",
      "longitude": 115.901438,
      "latitude": 39.945959,
      "station_location": "大台街道千军台",
      "admin_division_code": "110109000000",
      "admin_authority": "水文总站",
      "admin_division_name": "门头沟区",
      "station_level": "11",
      "area_code": "110100",
      "source_row_index": 2629
    },
    {
      "station_id": "01307A5008",
      "system_id": "FXPP3168",
      "station_name": "西王平",
      "river_name": "王平村沟",
      "basin_name": "永定河流域",
      "longitude": 115.972433,
      "latitude": 39.967605,
      "station_location": "王平镇西王平村",
      "admin_division_code": "110109000000",
      "admin_authority": "水文总站",
      "admin_division_name": "门头沟区",
      "station_level": "11",
      "area_code": "110100",
      "source_row_index": 2630
    },
    {
      "station_id": "01307A5009",
      "system_id": "FXPP3169",
      "station_name": "黄塔村",
      "river_name": "大南沟",
      "basin_name": "永定河流域",
      "longitude": 115.55795,
      "latitude": 39.86648,
      "station_location": "王平镇黄塔村",
      "admin_division_code": "110109000000",
      "admin_authority": "水文总站",
      "admin_division_name": "门头沟区",
      "station_level": "11",
      "area_code": "110100",
      "source_row_index": 2631
    },
    {
      "station_id": "01307A5010",
      "system_id": "FXPP3170",
      "station_name": "洪水口",
      "river_name": "清水河",
      "basin_name": "永定河流域",
      "longitude": 115.478056,
      "latitude": 39.989444,
      "station_location": "清水镇洪水口",
      "admin_division_code": "110109000000",
      "admin_authority": "水文总站",
      "admin_division_name": "门头沟区",
      "station_level": "11",
      "area_code": "110100",
      "source_row_index": 2632
    },
    {
      "station_id": "01307A5011",
      "system_id": "FXPP3171",
      "station_name": "洪水峪",
      "river_name": "达摩沟",
      "basin_name": "永定河流域",
      "longitude": 115.656748,
      "latitude": 39.903509,
      "station_location": "王平镇洪水峪村",
      "admin_division_code": "110109000000",
      "admin_authority": "水文总站",
      "admin_division_name": "门头沟区",
      "station_level": "11",
      "area_code": "110100",
      "source_row_index": 2633
    },
    {
      "station_id": "01307A5012",
      "system_id": "FXPP3172",
      "station_name": "燕家台",
      "river_name": "大北沟",
      "basin_name": "永定河流域",
      "longitude": 115.561111,
      "latitude": 40.0025,
      "station_location": "清水镇燕家台",
      "admin_division_code": "110109000000",
      "admin_authority": "水文总站",
      "admin_division_name": "门头沟区",
      "station_level": "11",
      "area_code": "110100",
      "source_row_index": 2634
    },
    {
      "station_id": "01307A5013",
      "system_id": "FXPP3173",
      "station_name": "珠窝村",
      "river_name": "永定河",
      "basin_name": "永定河流域",
      "longitude": 115.787954,
      "latitude": 40.051697,
      "station_location": "雁翅镇珠窝村",
      "admin_division_code": "110109000000",
      "admin_authority": "水文总站",
      "admin_division_name": "门头沟区",
      "station_level": "11",
      "area_code": "110100",
      "source_row_index": 2635
    },
    {
      "station_id": "01307A5014",
      "system_id": "FXPP3174",
      "station_name": "香峪村",
      "river_name": "军庄沟",
      "basin_name": "永定河流域",
      "longitude": 116.131046,
      "latitude": 39.995945,
      "station_location": "军庄镇香峪村",
      "admin_division_code": "110109000000",
      "admin_authority": "水文总站",
      "admin_division_name": "门头沟区",
      "station_level": "11",
      "area_code": "110100",
      "source_row_index": 2636
    },
    {
      "station_id": "01307A5015",
      "system_id": "FXPP3175",
      "station_name": "大村",
      "river_name": "湫河沟",
      "basin_name": "永定河流域",
      "longitude": 115.857697,
      "latitude": 40.112017,
      "station_location": "雁翅镇大村",
      "admin_division_code": "110109000000",
      "admin_authority": "水文总站",
      "admin_division_name": "门头沟区",
      "station_level": "11",
      "area_code": "110100",
      "source_row_index": 2637
    },
    {
      "station_id": "01307A5016",
      "system_id": "FXPP3176",
      "station_name": "雁翅村",
      "river_name": "永定河",
      "basin_name": "永定河流域",
      "longitude": 115.892852,
      "latitude": 40.038142,
      "station_location": "雁翅镇雁翅村",
      "admin_division_code": "110109000000",
      "admin_authority": "水文总站",
      "admin_division_name": "门头沟区",
      "station_level": "11",
      "area_code": "110100",
      "source_row_index": 2638
    },
    {
      "station_id": "01307A5017",
      "system_id": "FXPP3177",
      "station_name": "西斋堂村",
      "river_name": "清水河",
      "basin_name": "永定河流域",
      "longitude": 115.682891,
      "latitude": 39.971232,
      "station_location": "斋堂镇西斋堂村",
      "admin_division_code": "110109000000",
      "admin_authority": "水文总站",
      "admin_division_name": "门头沟区",
      "station_level": "11",
      "area_code": "110100",
      "source_row_index": 2639
    },
    {
      "station_id": "01307A5018",
      "system_id": "FXPP3178",
      "station_name": "梁家庄（台下村）",
      "river_name": "大北沟",
      "basin_name": "永定河流域",
      "longitude": 115.582447,
      "latitude": 39.976281,
      "station_location": "清水镇梁家庄村",
      "admin_division_code": "110109000000",
      "admin_authority": "水文总站",
      "admin_division_name": "门头沟区",
      "station_level": "11",
      "area_code": "110100",
      "source_row_index": 2640
    },
    {
      "station_id": "01307A5019",
      "system_id": "FXPP3179",
      "station_name": "马栏村",
      "river_name": "马栏沟",
      "basin_name": "永定河流域",
      "longitude": 115.68697,
      "latitude": 39.93834,
      "station_location": "斋堂镇马栏村",
      "admin_division_code": "110109000000",
      "admin_authority": "水文总站",
      "admin_division_name": "门头沟区",
      "station_level": "11",
      "area_code": "110100",
      "source_row_index": 2641
    },
    {
      "station_id": "01307A5020",
      "system_id": "FXPP3180",
      "station_name": "向阳口村",
      "river_name": "永定河",
      "basin_name": "永定河流域",
      "longitude": 115.753425,
      "latitude": 40.095182,
      "station_location": "斋堂镇向阳口村",
      "admin_division_code": "110109000000",
      "admin_authority": "水文总站",
      "admin_division_name": "门头沟区",
      "station_level": "11",
      "area_code": "110100",
      "source_row_index": 2642
    },
    {
      "station_id": "01307A5021",
      "system_id": "FXPP3181",
      "station_name": "牛战村",
      "river_name": "灵水沟",
      "basin_name": "永定河流域",
      "longitude": 115.706058,
      "latitude": 40.015232,
      "station_location": "斋堂镇牛战村",
      "admin_division_code": "110109000000",
      "admin_authority": "水文总站",
      "admin_division_name": "门头沟区",
      "station_level": "11",
      "area_code": "110100",
      "source_row_index": 2643
    },
    {
      "station_id": "01307A5022",
      "system_id": "FXPP3182",
      "station_name": "下清水村",
      "river_name": "清水河",
      "basin_name": "永定河流域",
      "longitude": 115.623132,
      "latitude": 39.94446,
      "station_location": "清水镇下清水村",
      "admin_division_code": "110109000000",
      "admin_authority": "水文总站",
      "admin_division_name": "门头沟区",
      "station_level": "11",
      "area_code": "110100",
      "source_row_index": 2644
    },
    {
      "station_id": "01307A5023",
      "system_id": "FXPP3183",
      "station_name": "齐家庄村",
      "river_name": "清水河",
      "basin_name": "永定河流域",
      "longitude": 115.505033,
      "latitude": 39.943702,
      "station_location": "清水镇齐家庄村",
      "admin_division_code": "110109000000",
      "admin_authority": "水文总站",
      "admin_division_name": "门头沟区",
      "station_level": "11",
      "area_code": "110100",
      "source_row_index": 2645
    },
    {
      "station_id": "01307A5024",
      "system_id": "FXPP3184",
      "station_name": "塔河村",
      "river_name": "大南沟",
      "basin_name": "永定河流域",
      "longitude": 115.55142,
      "latitude": 39.894907,
      "station_location": "清水镇塔河村",
      "admin_division_code": "110109000000",
      "admin_authority": "水文总站",
      "admin_division_name": "门头沟区",
      "station_level": "11",
      "area_code": "110100",
      "source_row_index": 2646
    },
    {
      "station_id": "01307A5025",
      "system_id": "FXPP3185",
      "station_name": "上苇甸",
      "river_name": "苇甸沟",
      "basin_name": "永定河流域",
      "longitude": 115.987482,
      "latitude": 40.028788,
      "station_location": "妙峰山镇上苇甸",
      "admin_division_code": "110109000000",
      "admin_authority": "水文总站",
      "admin_division_name": "门头沟区",
      "station_level": "11",
      "area_code": "110100",
      "source_row_index": 2647
    },
    {
      "station_id": "01307A5026",
      "system_id": "FXPP3186",
      "station_name": "担礼村",
      "river_name": "樱桃沟",
      "basin_name": "永定河流域",
      "longitude": 116.052615,
      "latitude": 39.987525,
      "station_location": "妙峰山镇担礼村",
      "admin_division_code": "110109000000",
      "admin_authority": "水文总站",
      "admin_division_name": "门头沟区",
      "station_level": "11",
      "area_code": "110100",
      "source_row_index": 2648
    },
    {
      "station_id": "01307A9000",
      "system_id": "FXPP3187",
      "station_name": "龙庆峡古城村",
      "river_name": "古城河",
      "basin_name": "永定河流域",
      "longitude": 116.021256,
      "latitude": 40.546184,
      "station_location": "旧县镇龙庆峡",
      "admin_division_code": "110119000000",
      "admin_authority": "水文总站",
      "admin_division_name": "延庆区",
      "station_level": "11",
      "area_code": "110100",
      "source_row_index": 2649
    },
    {
      "station_id": "01307A9001",
      "system_id": "FXPP3188",
      "station_name": "白河堡水库",
      "river_name": "北梁沟",
      "basin_name": "潮白河流域",
      "longitude": 116.189904,
      "latitude": 40.654442,
      "station_location": "香营乡白河堡村",
      "admin_division_code": "110119000000",
      "admin_authority": "水文总站",
      "admin_division_name": "延庆区",
      "station_level": "11",
      "area_code": "110100",
      "source_row_index": 2650
    },
    {
      "station_id": "01307A9002",
      "system_id": "FXPP3189",
      "station_name": "盆窑村",
      "river_name": "西龙湾河",
      "basin_name": "永定河流域",
      "longitude": 116.089812,
      "latitude": 40.539727,
      "station_location": "旧县镇盆窑村",
      "admin_division_code": "110119000000",
      "admin_authority": "水文总站",
      "admin_division_name": "延庆区",
      "station_level": "11",
      "area_code": "110100",
      "source_row_index": 2651
    },
    {
      "station_id": "01307A9003",
      "system_id": "FXPP3190",
      "station_name": "石峡村",
      "river_name": "帮水峪河",
      "basin_name": "永定河流域",
      "longitude": 115.954668,
      "latitude": 40.305872,
      "station_location": "八达岭镇石峡村",
      "admin_division_code": "110119000000",
      "admin_authority": "水文总站",
      "admin_division_name": "延庆区",
      "station_level": "11",
      "area_code": "110100",
      "source_row_index": 2652
    },
    {
      "station_id": "01307A9004",
      "system_id": "FXPP3191",
      "station_name": "石佛寺村",
      "river_name": "辛店河",
      "basin_name": "北运河流域",
      "longitude": 116.03995,
      "latitude": 40.339962,
      "station_location": "八达岭镇石佛寺村",
      "admin_division_code": "110119000000",
      "admin_authority": "水文总站",
      "admin_division_name": "延庆区",
      "station_level": "11",
      "area_code": "110100",
      "source_row_index": 2653
    },
    {
      "station_id": "01307A9005",
      "system_id": "FXPP3192",
      "station_name": "门泉石村",
      "river_name": "德胜口沟",
      "basin_name": "北运河流域",
      "longitude": 116.103872,
      "latitude": 40.380273,
      "station_location": "井庄镇门泉石村",
      "admin_division_code": "110119000000",
      "admin_authority": "水文总站",
      "admin_division_name": "延庆区",
      "station_level": "11",
      "area_code": "110100",
      "source_row_index": 2654
    },
    {
      "station_id": "01307A9006",
      "system_id": "FXPP3193",
      "station_name": "上垙村",
      "river_name": "西龙湾河",
      "basin_name": "永定河流域",
      "longitude": 116.12213,
      "latitude": 40.594311,
      "station_location": "香营乡上垙村",
      "admin_division_code": "110119000000",
      "admin_authority": "水文总站",
      "admin_division_name": "延庆区",
      "station_level": "11",
      "area_code": "110100",
      "source_row_index": 2655
    },
    {
      "station_id": "01307A9007",
      "system_id": "FXPP3194",
      "station_name": "上辛庄",
      "river_name": "西二道河",
      "basin_name": "永定河流域",
      "longitude": 116.067341,
      "latitude": 40.443598,
      "station_location": "大榆树镇上辛庄",
      "admin_division_code": "110119000000",
      "admin_authority": "水文总站",
      "admin_division_name": "延庆区",
      "station_level": "11",
      "area_code": "110100",
      "source_row_index": 2656
    },
    {
      "station_id": "01307A9008",
      "system_id": "FXPP3195",
      "station_name": "马蹄湾村",
      "river_name": "三里墩沟",
      "basin_name": "永定河流域",
      "longitude": 116.256357,
      "latitude": 40.491154,
      "station_location": "永宁镇马蹄湾村",
      "admin_division_code": "110119000000",
      "admin_authority": "水文总站",
      "admin_division_name": "延庆区",
      "station_level": "11",
      "area_code": "110100",
      "source_row_index": 2657
    },
    {
      "station_id": "01307A9009",
      "system_id": "FXPP3196",
      "station_name": "红果寺村",
      "river_name": "妫水河",
      "basin_name": "永定河流域",
      "longitude": 116.317801,
      "latitude": 40.54842,
      "station_location": "刘斌堡乡红果寺村",
      "admin_division_code": "110119000000",
      "admin_authority": "水文总站",
      "admin_division_name": "延庆区",
      "station_level": "11",
      "area_code": "110100",
      "source_row_index": 2658
    },
    {
      "station_id": "01307A9010",
      "system_id": "FXPP3197",
      "station_name": "西沟里村",
      "river_name": "四海镇沟",
      "basin_name": "潮白河流域",
      "longitude": 116.355462,
      "latitude": 40.522219,
      "station_location": "四海镇西沟里村",
      "admin_division_code": "110119000000",
      "admin_authority": "水文总站",
      "admin_division_name": "延庆区",
      "station_level": "11",
      "area_code": "110100",
      "source_row_index": 2659
    },
    {
      "station_id": "01307A9011",
      "system_id": "FXPP3198",
      "station_name": "水泉子村",
      "river_name": "菜食河",
      "basin_name": "潮白河流域",
      "longitude": 116.475876,
      "latitude": 40.585466,
      "station_location": "珍珠泉乡水泉子村",
      "admin_division_code": "110119000000",
      "admin_authority": "水文总站",
      "admin_division_name": "延庆区",
      "station_level": "11",
      "area_code": "110100",
      "source_row_index": 2660
    },
    {
      "station_id": "01307A9012",
      "system_id": "FXPP3199",
      "station_name": "石槽村",
      "river_name": "白河",
      "basin_name": "潮白河流域",
      "longitude": 116.201658,
      "latitude": 40.631487,
      "station_location": "千家店镇石槽村",
      "admin_division_code": "110119000000",
      "admin_authority": "水文总站",
      "admin_division_name": "延庆区",
      "station_level": "11",
      "area_code": "110100",
      "source_row_index": 2661
    },
    {
      "station_id": "01307A9013",
      "system_id": "FXPP3200",
      "station_name": "水头沟村",
      "river_name": "东湾沟",
      "basin_name": "潮白河流域",
      "longitude": 116.272955,
      "latitude": 40.74533,
      "station_location": "千家店镇水头沟村",
      "admin_division_code": "110119000000",
      "admin_authority": "水文总站",
      "admin_division_name": "延庆区",
      "station_level": "11",
      "area_code": "110100",
      "source_row_index": 2662
    },
    {
      "station_id": "01307A9014",
      "system_id": "FXPP3201",
      "station_name": "水泉沟村",
      "river_name": "花盆沟",
      "basin_name": "潮白河流域",
      "longitude": 116.375594,
      "latitude": 40.746677,
      "station_location": "千家店镇水泉沟村",
      "admin_division_code": "110119000000",
      "admin_authority": "水文总站",
      "admin_division_name": "延庆区",
      "station_level": "11",
      "area_code": "110100",
      "source_row_index": 2663
    },
    {
      "station_id": "01307A9015",
      "system_id": "FXPP3202",
      "station_name": "牤牛沟村",
      "river_name": "花盆沟",
      "basin_name": "潮白河流域",
      "longitude": 116.341839,
      "latitude": 40.762868,
      "station_location": "千家店镇牤牛沟村",
      "admin_division_code": "110119000000",
      "admin_authority": "水文总站",
      "admin_division_name": "延庆区",
      "station_level": "11",
      "area_code": "110100",
      "source_row_index": 2664
    },
    {
      "station_id": "01307A9016",
      "system_id": "FXPP3203",
      "station_name": "东边村",
      "river_name": "小川沟",
      "basin_name": "潮白河流域",
      "longitude": 116.193742,
      "latitude": 40.668276,
      "station_location": "香营乡东边村",
      "admin_division_code": "110119000000",
      "admin_authority": "水文总站",
      "admin_division_name": "延庆区",
      "station_level": "11",
      "area_code": "110100",
      "source_row_index": 2665
    },
    {
      "station_id": "01307A9017",
      "system_id": "FXPP3204",
      "station_name": "大柏老村",
      "river_name": "古城河",
      "basin_name": "永定河流域",
      "longitude": 116.059712,
      "latitude": 40.527469,
      "station_location": "旧县镇大柏老村",
      "admin_division_code": "110119000000",
      "admin_authority": "水文总站",
      "admin_division_name": "延庆区",
      "station_level": "11",
      "area_code": "110100",
      "source_row_index": 2666
    },
    {
      "station_id": "01308A5131",
      "system_id": "FXPP3205",
      "station_name": "王佐",
      "river_name": "北刘庄沟",
      "basin_name": "大清河流域",
      "longitude": 116.10906,
      "latitude": 39.799048,
      "station_location": "王佐镇泉湖西路1号院亿城燕西华府垃圾处理处旁",
      "admin_division_code": "110106000000",
      "admin_authority": "水文总站",
      "admin_division_name": "丰台区",
      "station_level": "11",
      "area_code": "110100",
      "source_row_index": 2667
    },
    {
      "station_id": "01308A5361",
      "system_id": "FXPP3206",
      "station_name": "十渡",
      "river_name": "拒马河",
      "basin_name": "大清河流域",
      "longitude": 115.58498,
      "latitude": 39.638828,
      "station_location": "十渡镇张坊水务中心站院内",
      "admin_division_code": "110111000000",
      "admin_authority": "水文总站",
      "admin_division_name": "房山区",
      "station_level": "11",
      "area_code": "110100",
      "source_row_index": 2668
    },
    {
      "station_id": "01308A9000",
      "system_id": "FXPP3207",
      "station_name": "大峪沟",
      "river_name": "大峪沟",
      "basin_name": "大清河流域",
      "longitude": 115.736758,
      "latitude": 39.604624,
      "station_location": "张坊镇大峪沟",
      "admin_division_code": "110111000000",
      "admin_authority": "水文总站",
      "admin_division_name": "房山区",
      "station_level": "11",
      "area_code": "110100",
      "source_row_index": 2669
    },
    {
      "station_id": "01308A9001",
      "system_id": "FXPP3208",
      "station_name": "水头村",
      "river_name": "胡良河（南泉水河）",
      "basin_name": "大清河流域",
      "longitude": 115.763998,
      "latitude": 39.613425,
      "station_location": "大石窝镇水头村",
      "admin_division_code": "110111000000",
      "admin_authority": "水文总站",
      "admin_division_name": "房山区",
      "station_level": "11",
      "area_code": "110100",
      "source_row_index": 2670
    },
    {
      "station_id": "01308A9002",
      "system_id": "FXPP3209",
      "station_name": "马安村",
      "river_name": "马鞍沟",
      "basin_name": "大清河流域",
      "longitude": 115.588055,
      "latitude": 39.676559,
      "station_location": "十渡镇马安村",
      "admin_division_code": "110111000000",
      "admin_authority": "水文总站",
      "admin_division_name": "房山区",
      "station_level": "11",
      "area_code": "110100",
      "source_row_index": 2671
    },
    {
      "station_id": "01308A9003",
      "system_id": "FXPP3210",
      "station_name": "平峪村",
      "river_name": "拒马河",
      "basin_name": "大清河流域",
      "longitude": 115.551146,
      "latitude": 39.649694,
      "station_location": "十渡镇平峪村",
      "admin_division_code": "110111000000",
      "admin_authority": "水文总站",
      "admin_division_name": "房山区",
      "station_level": "11",
      "area_code": "110100",
      "source_row_index": 2672
    },
    {
      "station_id": "01308A9004",
      "system_id": "FXPP3211",
      "station_name": "九渡村",
      "river_name": "拒马河",
      "basin_name": "大清河流域",
      "longitude": 115.581988,
      "latitude": 39.632955,
      "station_location": "十渡镇九渡村",
      "admin_division_code": "110111000000",
      "admin_authority": "水文总站",
      "admin_division_name": "房山区",
      "station_level": "11",
      "area_code": "110100",
      "source_row_index": 2673
    },
    {
      "station_id": "01308A9005",
      "system_id": "FXPP3212",
      "station_name": "西关上村",
      "river_name": "拒马河",
      "basin_name": "大清河流域",
      "longitude": 115.641865,
      "latitude": 39.634284,
      "station_location": "十渡镇西关上村",
      "admin_division_code": "110111000000",
      "admin_authority": "水文总站",
      "admin_division_name": "房山区",
      "station_level": "11",
      "area_code": "110100",
      "source_row_index": 2674
    },
    {
      "station_id": "01308A9006",
      "system_id": "FXPP3213",
      "station_name": "来利水",
      "river_name": "宝金山沟",
      "basin_name": "大清河流域",
      "longitude": 115.82515,
      "latitude": 39.69078,
      "station_location": "周口店镇来利水村",
      "admin_division_code": "110111000000",
      "admin_authority": "水文总站",
      "admin_division_name": "房山区",
      "station_level": "11",
      "area_code": "110100",
      "source_row_index": 2675
    },
    {
      "station_id": "01308A9007",
      "system_id": "FXPP3214",
      "station_name": "拴马桩",
      "river_name": "夹括河",
      "basin_name": "大清河流域",
      "longitude": 115.880268,
      "latitude": 39.65893,
      "station_location": "周口店镇拴马桩村",
      "admin_division_code": "110111000000",
      "admin_authority": "水文总站",
      "admin_division_name": "房山区",
      "station_level": "11",
      "area_code": "110100",
      "source_row_index": 2676
    },
    {
      "station_id": "01308A9008",
      "system_id": "FXPP3215",
      "station_name": "黄院",
      "river_name": "黄院沟",
      "basin_name": "大清河流域",
      "longitude": 115.908712,
      "latitude": 39.676184,
      "station_location": "周口店镇黄院村",
      "admin_division_code": "110111000000",
      "admin_authority": "水文总站",
      "admin_division_name": "房山区",
      "station_level": "11",
      "area_code": "110100",
      "source_row_index": 2677
    },
    {
      "station_id": "01308A9009",
      "system_id": "FXPP3216",
      "station_name": "周口店",
      "river_name": "周口店河",
      "basin_name": "大清河流域",
      "longitude": 115.929427,
      "latitude": 39.671602,
      "station_location": "周口店镇周口店村",
      "admin_division_code": "110111000000",
      "admin_authority": "水文总站",
      "admin_division_name": "房山区",
      "station_level": "11",
      "area_code": "110100",
      "source_row_index": 2678
    },
    {
      "station_id": "01308A9010",
      "system_id": "FXPP3217",
      "station_name": "车厂村",
      "river_name": "金陵沟",
      "basin_name": "大清河流域",
      "longitude": 115.911062,
      "latitude": 39.73059,
      "station_location": "周口店镇车厂村",
      "admin_division_code": "110111000000",
      "admin_authority": "水文总站",
      "admin_division_name": "房山区",
      "station_level": "11",
      "area_code": "110100",
      "source_row_index": 2679
    },
    {
      "station_id": "01308A9011",
      "system_id": "FXPP3218",
      "station_name": "向阳峪",
      "river_name": "周口店河",
      "basin_name": "大清河流域",
      "longitude": 115.917262,
      "latitude": 39.716134,
      "station_location": "周口店镇向阳峪",
      "admin_division_code": "110111000000",
      "admin_authority": "水文总站",
      "admin_division_name": "房山区",
      "station_level": "11",
      "area_code": "110100",
      "source_row_index": 2680
    },
    {
      "station_id": "01308A9012",
      "system_id": "FXPP3219",
      "station_name": "良各庄",
      "river_name": "周口店河",
      "basin_name": "大清河流域",
      "longitude": 115.921611,
      "latitude": 39.707896,
      "station_location": "周口店镇良各庄村",
      "admin_division_code": "110111000000",
      "admin_authority": "水文总站",
      "admin_division_name": "房山区",
      "station_level": "11",
      "area_code": "110100",
      "source_row_index": 2681
    },
    {
      "station_id": "01308A9013",
      "system_id": "FXPP3220",
      "station_name": "堂上村",
      "river_name": "大石河（琉璃河）",
      "basin_name": "大清河流域",
      "longitude": 115.57798,
      "latitude": 39.79021,
      "station_location": "霞云岭乡堂上村",
      "admin_division_code": "110111000000",
      "admin_authority": "水文总站",
      "admin_division_name": "房山区",
      "station_level": "11",
      "area_code": "110100",
      "source_row_index": 2682
    },
    {
      "station_id": "01308A9014",
      "system_id": "FXPP3221",
      "station_name": "西苑村",
      "river_name": "大安山沟",
      "basin_name": "大清河流域",
      "longitude": 115.750065,
      "latitude": 39.876151,
      "station_location": "大安乡西苑",
      "admin_division_code": "110111000000",
      "admin_authority": "水文总站",
      "admin_division_name": "房山区",
      "station_level": "11",
      "area_code": "110100",
      "source_row_index": 2683
    },
    {
      "station_id": "01308A9015",
      "system_id": "FXPP3222",
      "station_name": "中山村",
      "river_name": "大安山沟",
      "basin_name": "大清河流域",
      "longitude": 115.808611,
      "latitude": 39.873611,
      "station_location": "大安乡中山村",
      "admin_division_code": "110111000000",
      "admin_authority": "水文总站",
      "admin_division_name": "房山区",
      "station_level": "11",
      "area_code": "110100",
      "source_row_index": 2684
    },
    {
      "station_id": "01308A9016",
      "system_id": "FXPP3223",
      "station_name": "杨林水",
      "river_name": "杨林水沟",
      "basin_name": "大清河流域",
      "longitude": 115.68,
      "latitude": 39.809444,
      "station_location": "史家营乡杨林水大洼",
      "admin_division_code": "110111000000",
      "admin_authority": "水文总站",
      "admin_division_name": "房山区",
      "station_level": "11",
      "area_code": "110100",
      "source_row_index": 2685
    },
    {
      "station_id": "01308A9017",
      "system_id": "FXPP3224",
      "station_name": "鸳鸯水",
      "river_name": "史家营沟下游",
      "basin_name": "大清河流域",
      "longitude": 115.750788,
      "latitude": 39.825676,
      "station_location": "史家营乡鸳鸯水村",
      "admin_division_code": "110111000000",
      "admin_authority": "水文总站",
      "admin_division_name": "房山区",
      "station_level": "11",
      "area_code": "110100",
      "source_row_index": 2686
    },
    {
      "station_id": "01308A9018",
      "system_id": "FXPP3225",
      "station_name": "史家营",
      "river_name": "青林台沟",
      "basin_name": "大清河流域",
      "longitude": 115.660556,
      "latitude": 39.851667,
      "station_location": "史家营乡史家营村",
      "admin_division_code": "110111000000",
      "admin_authority": "水文总站",
      "admin_division_name": "房山区",
      "station_level": "11",
      "area_code": "110100",
      "source_row_index": 2687
    },
    {
      "station_id": "01308A9019",
      "system_id": "FXPP3226",
      "station_name": "西班各庄",
      "river_name": "大石河（琉璃河）",
      "basin_name": "大清河流域",
      "longitude": 115.892833,
      "latitude": 39.821,
      "station_location": "佛子庄乡西班各庄",
      "admin_division_code": "110111000000",
      "admin_authority": "水文总站",
      "admin_division_name": "房山区",
      "station_level": "11",
      "area_code": "110100",
      "source_row_index": 2688
    },
    {
      "station_id": "01308A9020",
      "system_id": "FXPP3227",
      "station_name": "大西沟",
      "river_name": "南窖沟",
      "basin_name": "大清河流域",
      "longitude": 115.818917,
      "latitude": 39.78478,
      "station_location": "南窖乡大西沟村",
      "admin_division_code": "110111000000",
      "admin_authority": "水文总站",
      "admin_division_name": "房山区",
      "station_level": "11",
      "area_code": "110100",
      "source_row_index": 2689
    },
    {
      "station_id": "01308A9021",
      "system_id": "FXPP3228",
      "station_name": "三合村",
      "river_name": "南窖沟",
      "basin_name": "大清河流域",
      "longitude": 115.85177,
      "latitude": 39.759633,
      "station_location": "南窖乡三合村",
      "admin_division_code": "110111000000",
      "admin_authority": "水文总站",
      "admin_division_name": "房山区",
      "station_level": "11",
      "area_code": "110100",
      "source_row_index": 2690
    },
    {
      "station_id": "01308A9022",
      "system_id": "FXPP3229",
      "station_name": "中窖村",
      "river_name": "南窖沟",
      "basin_name": "大清河流域",
      "longitude": 115.84,
      "latitude": 39.775517,
      "station_location": "南窖乡中窖村",
      "admin_division_code": "110111000000",
      "admin_authority": "水文总站",
      "admin_division_name": "房山区",
      "station_level": "11",
      "area_code": "110100",
      "source_row_index": 2691
    },
    {
      "station_id": "01308A9023",
      "system_id": "FXPP3230",
      "station_name": "口儿村",
      "river_name": "大石河（琉璃河）",
      "basin_name": "大清河流域",
      "longitude": 115.915333,
      "latitude": 39.786967,
      "station_location": "河北镇口儿村",
      "admin_division_code": "110111000000",
      "admin_authority": "水文总站",
      "admin_division_name": "房山区",
      "station_level": "11",
      "area_code": "110100",
      "source_row_index": 2692
    },
    {
      "station_id": "01308A9024",
      "system_id": "FXPP3231",
      "station_name": "李各庄",
      "river_name": "大石河（琉璃河）",
      "basin_name": "大清河流域",
      "longitude": 115.942267,
      "latitude": 39.82295,
      "station_location": "河北镇李各庄",
      "admin_division_code": "110111000000",
      "admin_authority": "水文总站",
      "admin_division_name": "房山区",
      "station_level": "11",
      "area_code": "110100",
      "source_row_index": 2693
    },
    {
      "station_id": "01308A9025",
      "system_id": "FXPP3232",
      "station_name": "磁家务",
      "river_name": "大石河（琉璃河）",
      "basin_name": "大清河流域",
      "longitude": 115.982017,
      "latitude": 39.793783,
      "station_location": "河北镇磁家务村",
      "admin_division_code": "110111000000",
      "admin_authority": "水文总站",
      "admin_division_name": "房山区",
      "station_level": "11",
      "area_code": "110100",
      "source_row_index": 2694
    },
    {
      "station_id": "01308A9026",
      "system_id": "FXPP3233",
      "station_name": "下河村",
      "river_name": "大石河（琉璃河）",
      "basin_name": "大清河流域",
      "longitude": 115.73673,
      "latitude": 39.73288,
      "station_location": "霞云岭乡下河",
      "admin_division_code": "110111000000",
      "admin_authority": "水文总站",
      "admin_division_name": "房山区",
      "station_level": "11",
      "area_code": "110100",
      "source_row_index": 2695
    },
    {
      "station_id": "01308A9027",
      "system_id": "FXPP3234",
      "station_name": "中石堡",
      "river_name": "大石河（琉璃河）",
      "basin_name": "大清河流域",
      "longitude": 115.75826,
      "latitude": 39.76862,
      "station_location": "霞云岭乡中石堡",
      "admin_division_code": "110111000000",
      "admin_authority": "水文总站",
      "admin_division_name": "房山区",
      "station_level": "11",
      "area_code": "110100",
      "source_row_index": 2696
    },
    {
      "station_id": "01308A9028",
      "system_id": "FXPP3235",
      "station_name": "长流水",
      "river_name": "大石河（琉璃河）",
      "basin_name": "大清河流域",
      "longitude": 115.72203,
      "latitude": 39.71161,
      "station_location": "霞云岭乡长流水",
      "admin_division_code": "110111000000",
      "admin_authority": "水文总站",
      "admin_division_name": "房山区",
      "station_level": "11",
      "area_code": "110100",
      "source_row_index": 2697
    },
    {
      "station_id": "01308A9029",
      "system_id": "FXPP3236",
      "station_name": "刘家村",
      "river_name": "瞧煤涧沟",
      "basin_name": "大清河流域",
      "longitude": 115.781667,
      "latitude": 39.900183,
      "station_location": "大安乡刘家村",
      "admin_division_code": "110111000000",
      "admin_authority": "水文总站",
      "admin_division_name": "房山区",
      "station_level": "11",
      "area_code": "110100",
      "source_row_index": 2698
    },
    {
      "station_id": "01308A9030",
      "system_id": "FXPP3237",
      "station_name": "北车营",
      "river_name": "北车营沟",
      "basin_name": "大清河流域",
      "longitude": 116.02787,
      "latitude": 39.81201,
      "station_location": "青龙湖北车营村",
      "admin_division_code": "110111000000",
      "admin_authority": "水文总站",
      "admin_division_name": "房山区",
      "station_level": "11",
      "area_code": "110100",
      "source_row_index": 2699
    },
    {
      "station_id": "01308A9031",
      "system_id": "FXPP3238",
      "station_name": "云居寺",
      "river_name": "胡良河（南泉水河）",
      "basin_name": "大清河流域",
      "longitude": 115.769365,
      "latitude": 39.584347,
      "station_location": "南尚镇云居寺",
      "admin_division_code": "110111000000",
      "admin_authority": "水文总站",
      "admin_division_name": "房山区",
      "station_level": "11",
      "area_code": "110100",
      "source_row_index": 2700
    },
    {
      "station_id": "01900200",
      "system_id": "FXPP6361",
      "station_name": "大青沟水库（坝上",
      "river_name": "大青沟河",
      "basin_name": "河北北部内陆河",
      "longitude": 114.071667,
      "latitude": 41.3625,
      "station_location": "河北省张家口市尚义县大青沟镇大青沟水库",
      "admin_division_code": "130725000000",
      "admin_authority": "河北水文",
      "admin_division_name": "冀-尚义县",
      "station_level": "7",
      "area_code": "130725",
      "source_row_index": 3782
    },
    {
      "station_id": "01900501",
      "system_id": "FXPP6362",
      "station_name": "张北",
      "river_name": "安固里河",
      "basin_name": "河北北部内陆河",
      "longitude": 114.6875,
      "latitude": 41.169444,
      "station_location": "河北省张家口市张北县张北镇安固里桥",
      "admin_division_code": "130722000000",
      "admin_authority": "河北水文",
      "admin_division_name": "",
      "station_level": "7",
      "area_code": "130722",
      "source_row_index": 3783
    },
    {
      "station_id": "01900700",
      "system_id": "FXPP6363",
      "station_name": "黄盖淖水库",
      "river_name": "黑水河",
      "basin_name": "河北北部内陆河",
      "longitude": 114.705389,
      "latitude": 41.355583,
      "station_location": "河北省张家口市张北县二泉井乡黄盖淖水库",
      "admin_division_code": "130722000000",
      "admin_authority": "河北水文",
      "admin_division_name": "",
      "station_level": "7",
      "area_code": "130722",
      "source_row_index": 3784
    },
    {
      "station_id": "01901000",
      "system_id": "FXPP6364",
      "station_name": "小厂",
      "river_name": "葫芦河",
      "basin_name": "河北北部内陆河",
      "longitude": 115.788083,
      "latitude": 41.426861,
      "station_location": "河北省张家口市沽源县小厂镇小厂村",
      "admin_division_code": "130724000000",
      "admin_authority": "河北水文",
      "admin_division_name": "冀-沽源县",
      "station_level": "7",
      "area_code": "130724",
      "source_row_index": 3785
    },
    {
      "station_id": "01920100",
      "system_id": "FXPP6365",
      "station_name": "前照阳河",
      "river_name": "照阳河",
      "basin_name": "河北北部内陆河",
      "longitude": 114.568667,
      "latitude": 42.070333,
      "station_location": "河北省张家口市康保县照阳河镇前照阳河村",
      "admin_division_code": "130723000000",
      "admin_authority": "河北水文",
      "admin_division_name": "",
      "station_level": "7",
      "area_code": "130723",
      "source_row_index": 3786
    },
    {
      "station_id": "01920200",
      "system_id": "FXPP6366",
      "station_name": "满德堂",
      "river_name": "内陆河",
      "basin_name": "河北北部内陆河",
      "longitude": 114.500611,
      "latitude": 41.936806,
      "station_location": "河北省张家口市康保县满德堂乡满德堂村",
      "admin_division_code": "130723000000",
      "admin_authority": "河北水文",
      "admin_division_name": "",
      "station_level": "7",
      "area_code": "130723",
      "source_row_index": 3787
    },
    {
      "station_id": "01920300",
      "system_id": "FXPP6367",
      "station_name": "屯垦",
      "river_name": "内陆河",
      "basin_name": "河北北部内陆河",
      "longitude": 114.750222,
      "latitude": 41.929556,
      "station_location": "河北省张家口市康保县屯垦镇屯垦村",
      "admin_division_code": "130723000000",
      "admin_authority": "河北水文",
      "admin_division_name": "",
      "station_level": "7",
      "area_code": "130723",
      "source_row_index": 3788
    },
    {
      "station_id": "01920400",
      "system_id": "FXPP6368",
      "station_name": "康保",
      "river_name": "内陆河",
      "basin_name": "河北北部内陆河",
      "longitude": 114.616667,
      "latitude": 41.85,
      "station_location": "河北省张家口市康保县康保镇北关村",
      "admin_division_code": "130723000000",
      "admin_authority": "河北水文",
      "admin_division_name": "",
      "station_level": "7",
      "area_code": "130723",
      "source_row_index": 3789
    },
    {
      "station_id": "01920500",
      "system_id": "FXPP6369",
      "station_name": "阎油坊",
      "river_name": "张木淖",
      "basin_name": "河北北部内陆河",
      "longitude": 114.812611,
      "latitude": 41.754444,
      "station_location": "河北省张家口市康保县闫油坊乡闫油坊村",
      "admin_division_code": "130723000000",
      "admin_authority": "河北水文",
      "admin_division_name": "",
      "station_level": "7",
      "area_code": "130723",
      "source_row_index": 3790
    },
    {
      "station_id": "01920600",
      "system_id": "FXPP6370",
      "station_name": "大囫囵",
      "river_name": "内陆河",
      "basin_name": "河北北部内陆河",
      "longitude": 114.481861,
      "latitude": 41.755,
      "station_location": "河北省张家口市康保县处长地乡处长地村",
      "admin_division_code": "130723000000",
      "admin_authority": "河北水文",
      "admin_division_name": "",
      "station_level": "7",
      "area_code": "130723",
      "source_row_index": 3791
    },
    {
      "station_id": "01920700",
      "system_id": "FXPP6371",
      "station_name": "芦家营",
      "river_name": "二马坊淖",
      "basin_name": "河北北部内陆河",
      "longitude": 114.33525,
      "latitude": 41.811556,
      "station_location": "河北省张家口市康保县芦家营乡芦家营村",
      "admin_division_code": "130723000000",
      "admin_authority": "河北水文",
      "admin_division_name": "",
      "station_level": "7",
      "area_code": "130723",
      "source_row_index": 3792
    },
    {
      "station_id": "01920800",
      "system_id": "FXPP6372",
      "station_name": "李家地",
      "river_name": "二马坊淖",
      "basin_name": "河北北部内陆河",
      "longitude": 114.312417,
      "latitude": 41.708028,
      "station_location": "河北省张家口市康保县李家地镇李家地村",
      "admin_division_code": "130723000000",
      "admin_authority": "河北水文",
      "admin_division_name": "",
      "station_level": "7",
      "area_code": "130723",
      "source_row_index": 3793
    },
    {
      "station_id": "01920900",
      "system_id": "FXPP6373",
      "station_name": "丹清河",
      "river_name": "内陆河",
      "basin_name": "河北北部内陆河",
      "longitude": 114.578389,
      "latitude": 41.656667,
      "station_location": "河北省张家口市康保县张纪镇张纪村",
      "admin_division_code": "130723000000",
      "admin_authority": "河北水文",
      "admin_division_name": "",
      "station_level": "7",
      "area_code": "130723",
      "source_row_index": 3794
    },
    {
      "station_id": "01921000",
      "system_id": "FXPP6374",
      "station_name": "万隆店",
      "river_name": "万隆店淖",
      "basin_name": "河北北部内陆河",
      "longitude": 114.874222,
      "latitude": 41.659944,
      "station_location": "河北省张家口市康保县闫油坊乡万隆店村",
      "admin_division_code": "130723000000",
      "admin_authority": "河北水文",
      "admin_division_name": "",
      "station_level": "7",
      "area_code": "130723",
      "source_row_index": 3795
    },
    {
      "station_id": "01921050",
      "system_id": "FXPP6375",
      "station_name": "哈咇嘎",
      "river_name": "内陆河",
      "basin_name": "河北北部内陆河",
      "longitude": 114.780222,
      "latitude": 41.556583,
      "station_location": "河北省张家口市康保县哈咇嘎乡哈咇嘎村",
      "admin_division_code": "130723000000",
      "admin_authority": "河北水文",
      "admin_division_name": "",
      "station_level": "7",
      "area_code": "130723",
      "source_row_index": 3796
    },
    {
      "station_id": "01921100",
      "system_id": "FXPP6376",
      "station_name": "脑包底",
      "river_name": "内陆河",
      "basin_name": "河北北部内陆河",
      "longitude": 114.985744,
      "latitude": 41.471472,
      "station_location": "河北省张家口市张北县沙沟镇吉家村",
      "admin_division_code": "130722000000",
      "admin_authority": "河北水文",
      "admin_division_name": "",
      "station_level": "7",
      "area_code": "130772",
      "source_row_index": 3797
    },
    {
      "station_id": "01921200",
      "system_id": "FXPP6377",
      "station_name": "土城子",
      "river_name": "内陆河",
      "basin_name": "河北北部内陆河",
      "longitude": 114.619333,
      "latitude": 41.495639,
      "station_location": "河北省张家口市康保县土城子镇南房子村",
      "admin_division_code": "130723000000",
      "admin_authority": "河北水文",
      "admin_division_name": "",
      "station_level": "7",
      "area_code": "130723",
      "source_row_index": 3798
    },
    {
      "station_id": "01921300",
      "system_id": "FXPP6378",
      "station_name": "邓油房",
      "river_name": "内陆河",
      "basin_name": "河北北部内陆河",
      "longitude": 114.396611,
      "latitude": 41.571806,
      "station_location": "河北省张家口市康保县邓油坊镇邓油坊东村",
      "admin_division_code": "130723000000",
      "admin_authority": "河北水文",
      "admin_division_name": "",
      "station_level": "7",
      "area_code": "130723",
      "source_row_index": 3799
    },
    {
      "station_id": "01921400",
      "system_id": "FXPP6379",
      "station_name": "大苏计",
      "river_name": "内陆河",
      "basin_name": "河北北部内陆河",
      "longitude": 114.160583,
      "latitude": 41.473389,
      "station_location": "河北省张家口市尚义县大苏计乡大苏计村",
      "admin_division_code": "130725000000",
      "admin_authority": "河北水文",
      "admin_division_name": "冀-尚义县",
      "station_level": "7",
      "area_code": "130725",
      "source_row_index": 3800
    },
    {
      "station_id": "01921500",
      "system_id": "FXPP6380",
      "station_name": "炕塄",
      "river_name": "大青沟",
      "basin_name": "河北北部内陆河",
      "longitude": 114.261667,
      "latitude": 41.15225,
      "station_location": "河北省张家口市尚义县满井镇梁家村",
      "admin_division_code": "130725000000",
      "admin_authority": "河北水文",
      "admin_division_name": "冀-尚义县",
      "station_level": "7",
      "area_code": "130725",
      "source_row_index": 3801
    },
    {
      "station_id": "01921600",
      "system_id": "FXPP6381",
      "station_name": "蔡家村",
      "river_name": "大青沟",
      "basin_name": "河北北部内陆河",
      "longitude": 114.256778,
      "latitude": 41.329472,
      "station_location": "河北省张家口市尚义县石井乡马莲洼村",
      "admin_division_code": "130725000000",
      "admin_authority": "河北水文",
      "admin_division_name": "冀-尚义县",
      "station_level": "7",
      "area_code": "130725",
      "source_row_index": 3802
    },
    {
      "station_id": "01921900",
      "system_id": "FXPP6382",
      "station_name": "哈拉沟",
      "river_name": "二龙河",
      "basin_name": "河北北部内陆河",
      "longitude": 113.985361,
      "latitude": 41.271472,
      "station_location": "河北省张家口市尚义县三工地镇哈拉沟村",
      "admin_division_code": "130725000000",
      "admin_authority": "河北水文",
      "admin_division_name": "冀-尚义县",
      "station_level": "7",
      "area_code": "130725",
      "source_row_index": 3803
    },
    {
      "station_id": "01922000",
      "system_id": "FXPP6383",
      "station_name": "大河",
      "river_name": "三台河",
      "basin_name": "河北北部内陆河",
      "longitude": 114.406611,
      "latitude": 41.071278,
      "station_location": "河北省张家口市张北县大河镇下房子村",
      "admin_division_code": "130722000000",
      "admin_authority": "河北水文",
      "admin_division_name": "",
      "station_level": "7",
      "area_code": "130722",
      "source_row_index": 3804
    },
    {
      "station_id": "01922100",
      "system_id": "FXPP6384",
      "station_name": "单晶河",
      "river_name": "单晶河",
      "basin_name": "河北北部内陆河",
      "longitude": 114.38,
      "latitude": 41.186611,
      "station_location": "河北省张家口市张北县单晶河乡白家滩村",
      "admin_division_code": "130722000000",
      "admin_authority": "河北水文",
      "admin_division_name": "",
      "station_level": "7",
      "area_code": "130722",
      "source_row_index": 3805
    },
    {
      "station_id": "01922200",
      "system_id": "FXPP6385",
      "station_name": "海流图",
      "river_name": "三台河",
      "basin_name": "河北北部内陆河",
      "longitude": 114.457111,
      "latitude": 41.240833,
      "station_location": "河北省张家口市张北县海流图乡海流图村",
      "admin_division_code": "130722000000",
      "admin_authority": "河北水文",
      "admin_division_name": "",
      "station_level": "7",
      "area_code": "130722",
      "source_row_index": 3806
    },
    {
      "station_id": "01922300",
      "system_id": "FXPP6386",
      "station_name": "公会",
      "river_name": "安固里淖",
      "basin_name": "河北北部内陆河",
      "longitude": 114.52175,
      "latitude": 41.336917,
      "station_location": "河北省张家口市张北县公会镇二街",
      "admin_division_code": "130722000000",
      "admin_authority": "河北水文",
      "admin_division_name": "",
      "station_level": "7",
      "area_code": "130722",
      "source_row_index": 3807
    },
    {
      "station_id": "01922400",
      "system_id": "FXPP6387",
      "station_name": "黄石崖",
      "river_name": "安固里淖",
      "basin_name": "河北北部内陆河",
      "longitude": 114.360083,
      "latitude": 41.386167,
      "station_location": "河北省张家口市张北县大西湾乡黄石崖村",
      "admin_division_code": "130722000000",
      "admin_authority": "河北水文",
      "admin_division_name": "",
      "station_level": "7",
      "area_code": "130722",
      "source_row_index": 3808
    },
    {
      "station_id": "01922500",
      "system_id": "FXPP6388",
      "station_name": "春垦",
      "river_name": "台路沟",
      "basin_name": "河北北部内陆河",
      "longitude": 114.578389,
      "latitude": 41.006,
      "station_location": "河北省张家口市张北县台路沟乡春垦村",
      "admin_division_code": "130722000000",
      "admin_authority": "河北水文",
      "admin_division_name": "",
      "station_level": "7",
      "area_code": "130722",
      "source_row_index": 3809
    },
    {
      "station_id": "01922600",
      "system_id": "FXPP6389",
      "station_name": "台路沟",
      "river_name": "台路沟",
      "basin_name": "河北北部内陆河",
      "longitude": 114.558,
      "latitude": 41.037139,
      "station_location": "河北省张家口市张北县台路沟乡台路沟村",
      "admin_division_code": "130722000000",
      "admin_authority": "河北水文",
      "admin_division_name": "",
      "station_level": "7",
      "area_code": "130722",
      "source_row_index": 3810
    },
    {
      "station_id": "01922700",
      "system_id": "FXPP6390",
      "station_name": "大圪垯",
      "river_name": "台路沟",
      "basin_name": "河北北部内陆河",
      "longitude": 114.579667,
      "latitude": 41.081611,
      "station_location": "河北省张家口市张北县台路沟乡大圪垯村",
      "admin_division_code": "130722000000",
      "admin_authority": "河北水文",
      "admin_division_name": "",
      "station_level": "7",
      "area_code": "130722",
      "source_row_index": 3811
    },
    {
      "station_id": "01922800",
      "system_id": "FXPP6391",
      "station_name": "大羊盘",
      "river_name": "台路沟",
      "basin_name": "河北北部内陆河",
      "longitude": 114.484417,
      "latitude": 41.051083,
      "station_location": "河北省张家口市张北县大河镇大羊盘村",
      "admin_division_code": "130722000000",
      "admin_authority": "河北水文",
      "admin_division_name": "",
      "station_level": "7",
      "area_code": "130722",
      "source_row_index": 3812
    },
    {
      "station_id": "01922900",
      "system_id": "FXPP6392",
      "station_name": "羊囫囵",
      "river_name": "台路沟",
      "basin_name": "河北北部内陆河",
      "longitude": 114.651528,
      "latitude": 41.075722,
      "station_location": "河北省张家口市张北县台路沟乡羊囫囵村",
      "admin_division_code": "130722000000",
      "admin_authority": "河北水文",
      "admin_division_name": "",
      "station_level": "7",
      "area_code": "130722",
      "source_row_index": 3813
    },
    {
      "station_id": "01923000",
      "system_id": "FXPP6393",
      "station_name": "烈士塔",
      "river_name": "狼窝沟",
      "basin_name": "河北北部内陆河",
      "longitude": 114.727889,
      "latitude": 41.025806,
      "station_location": "河北省张家口市张北县油篓沟镇狼窝沟村",
      "admin_division_code": "130722000000",
      "admin_authority": "河北水文",
      "admin_division_name": "",
      "station_level": "7",
      "area_code": "130722",
      "source_row_index": 3814
    },
    {
      "station_id": "01923200",
      "system_id": "FXPP6394",
      "station_name": "阳坡",
      "river_name": "头道河",
      "basin_name": "河北北部内陆河",
      "longitude": 114.837833,
      "latitude": 41.044611,
      "station_location": "河北省张家口市张北县油篓沟镇小南洼村",
      "admin_division_code": "130722000000",
      "admin_authority": "河北水文",
      "admin_division_name": "",
      "station_level": "7",
      "area_code": "130722",
      "source_row_index": 3815
    },
    {
      "station_id": "01923300",
      "system_id": "FXPP6395",
      "station_name": "韭菜沟",
      "river_name": "二道河",
      "basin_name": "河北北部内陆河",
      "longitude": 114.915361,
      "latitude": 41.069694,
      "station_location": "河北省张家口市张北县小二台镇韭菜沟村",
      "admin_division_code": "130722000000",
      "admin_authority": "河北水文",
      "admin_division_name": "",
      "station_level": "7",
      "area_code": "130722",
      "source_row_index": 3816
    },
    {
      "station_id": "01923400",
      "system_id": "FXPP6396",
      "station_name": "下红果图",
      "river_name": "暖水泉",
      "basin_name": "河北北部内陆河",
      "longitude": 114.948,
      "latitude": 41.152111,
      "station_location": "河北省张家口市张北县白庙滩乡下红果图村",
      "admin_division_code": "130722000000",
      "admin_authority": "河北水文",
      "admin_division_name": "",
      "station_level": "7",
      "area_code": "130722",
      "source_row_index": 3817
    },
    {
      "station_id": "01923450",
      "system_id": "FXPP6397",
      "station_name": "兴隆",
      "river_name": "东洋河",
      "basin_name": "河北北部内陆河",
      "longitude": 114.807389,
      "latitude": 41.173389,
      "station_location": "河北省张家口市张北县油篓沟镇兴隆村",
      "admin_division_code": "130722000000",
      "admin_authority": "河北水文",
      "admin_division_name": "",
      "station_level": "7",
      "area_code": "130722",
      "source_row_index": 3818
    },
    {
      "station_id": "01923500",
      "system_id": "FXPP6398",
      "station_name": "小二台",
      "river_name": "东洋河",
      "basin_name": "河北北部内陆河",
      "longitude": 114.860472,
      "latitude": 41.181,
      "station_location": "河北省张家口市张北县小二台镇小二台村",
      "admin_division_code": "130722000000",
      "admin_authority": "河北水文",
      "admin_division_name": "",
      "station_level": "7",
      "area_code": "130722",
      "source_row_index": 3819
    },
    {
      "station_id": "01923550",
      "system_id": "FXPP6399",
      "station_name": "东营盘",
      "river_name": "南壕堑河",
      "basin_name": "河北北部内陆河",
      "longitude": 114.756861,
      "latitude": 41.112056,
      "station_location": "河北省张家口市张北县油篓沟镇孟家营村",
      "admin_division_code": "130722000000",
      "admin_authority": "河北水文",
      "admin_division_name": "",
      "station_level": "7",
      "area_code": "130722",
      "source_row_index": 3820
    },
    {
      "station_id": "01923600",
      "system_id": "FXPP6400",
      "station_name": "馒头营",
      "river_name": "安固里河",
      "basin_name": "河北北部内陆河",
      "longitude": 114.651333,
      "latitude": 41.260528,
      "station_location": "河北省张家口市张北县馒头营乡馒头营村",
      "admin_division_code": "130722000000",
      "admin_authority": "河北水文",
      "admin_division_name": "",
      "station_level": "7",
      "area_code": "130722",
      "source_row_index": 3821
    },
    {
      "station_id": "01923700",
      "system_id": "FXPP6401",
      "station_name": "黄盖淖水库",
      "river_name": "黑水河",
      "basin_name": "河北北部内陆河",
      "longitude": 114.700472,
      "latitude": 41.357722,
      "station_location": "河北省张家口市张北县二泉井乡黄盖淖水库",
      "admin_division_code": "130722000000",
      "admin_authority": "河北水文",
      "admin_division_name": "",
      "station_level": "7",
      "area_code": "130722",
      "source_row_index": 3822
    },
    {
      "station_id": "01923800",
      "system_id": "FXPP6402",
      "station_name": "五贵房",
      "river_name": "黄盖淖",
      "basin_name": "河北北部内陆河",
      "longitude": 114.874333,
      "latitude": 41.284944,
      "station_location": "河北省张家口市张北县郝家营乡脑包洼村",
      "admin_division_code": "130722000000",
      "admin_authority": "河北水文",
      "admin_division_name": "",
      "station_level": "7",
      "area_code": "130722",
      "source_row_index": 3823
    },
    {
      "station_id": "01923900",
      "system_id": "FXPP6403",
      "station_name": "大囫囵",
      "river_name": "内陆河",
      "basin_name": "河北北部内陆河",
      "longitude": 115.097861,
      "latitude": 41.355944,
      "station_location": "河北省张家口市张北县大囫囵镇土茂营村",
      "admin_division_code": "130722000000",
      "admin_authority": "河北水文",
      "admin_division_name": "",
      "station_level": "7",
      "area_code": "130722",
      "source_row_index": 3824
    },
    {
      "station_id": "01924000",
      "system_id": "FXPP6404",
      "station_name": "板申图",
      "river_name": "内陆河",
      "basin_name": "河北北部内陆河",
      "longitude": 115.035917,
      "latitude": 41.32625,
      "station_location": "河北省张家口市张北县二台镇板申图村",
      "admin_division_code": "130722000000",
      "admin_authority": "河北水文",
      "admin_division_name": "",
      "station_level": "7",
      "area_code": "130722",
      "source_row_index": 3825
    },
    {
      "station_id": "01924100",
      "system_id": "FXPP6405",
      "station_name": "白塔",
      "river_name": "乌兰一支根河",
      "basin_name": "河北北部内陆河",
      "longitude": 114.730972,
      "latitude": 41.449472,
      "station_location": "河北省张家口市张北县二泉井乡前四顶村",
      "admin_division_code": "130722000000",
      "admin_authority": "河北水文",
      "admin_division_name": "",
      "station_level": "7",
      "area_code": "130722",
      "source_row_index": 3826
    },
    {
      "station_id": "01924150",
      "system_id": "FXPP6406",
      "station_name": "大苟营",
      "river_name": "灯笼河",
      "basin_name": "河北北部内陆河",
      "longitude": 115.192889,
      "latitude": 41.548056,
      "station_location": "河北省张家口市沽源县黄盖淖镇大苟营村",
      "admin_division_code": "130724000000",
      "admin_authority": "河北水文",
      "admin_division_name": "冀-沽源县",
      "station_level": "7",
      "area_code": "130724",
      "source_row_index": 3827
    },
    {
      "station_id": "01924200",
      "system_id": "FXPP6407",
      "station_name": "三号地",
      "river_name": "九连城淖",
      "basin_name": "河北北部内陆河",
      "longitude": 114.987806,
      "latitude": 41.56025,
      "station_location": "河北省张家口市沽源县九连城镇半拉山村",
      "admin_division_code": "130724000000",
      "admin_authority": "河北水文",
      "admin_division_name": "冀-沽源县",
      "station_level": "7",
      "area_code": "130724",
      "source_row_index": 3828
    },
    {
      "station_id": "01924300",
      "system_id": "FXPP6408",
      "station_name": "大石头沟",
      "river_name": "内陆河",
      "basin_name": "河北北部内陆河",
      "longitude": 115.436472,
      "latitude": 41.30675,
      "station_location": "河北省张家口市张北县战海乡塔院村",
      "admin_division_code": "130722000000",
      "admin_authority": "河北水文",
      "admin_division_name": "",
      "station_level": "7",
      "area_code": "130722",
      "source_row_index": 3829
    },
    {
      "station_id": "01924400",
      "system_id": "FXPP6409",
      "station_name": "七一水库",
      "river_name": "小碱滩河",
      "basin_name": "河北北部内陆河",
      "longitude": 115.341111,
      "latitude": 41.438833,
      "station_location": "河北省张家口市沽源县西辛营乡二十里脑包村",
      "admin_division_code": "130724000000",
      "admin_authority": "河北水文",
      "admin_division_name": "冀-沽源县",
      "station_level": "7",
      "area_code": "130724",
      "source_row_index": 3830
    },
    {
      "station_id": "01924500",
      "system_id": "FXPP6410",
      "station_name": "三间房",
      "river_name": "南水泉",
      "basin_name": "河北北部内陆河",
      "longitude": 115.486694,
      "latitude": 41.375611,
      "station_location": "河北省张家口市沽源县莲花滩乡三家村",
      "admin_division_code": "130724000000",
      "admin_authority": "河北水文",
      "admin_division_name": "冀-沽源县",
      "station_level": "7",
      "area_code": "130724",
      "source_row_index": 3831
    },
    {
      "station_id": "01924600",
      "system_id": "FXPP6411",
      "station_name": "庙子沟",
      "river_name": "干水河",
      "basin_name": "河北北部内陆河",
      "longitude": 115.912389,
      "latitude": 41.301028,
      "station_location": "河北省张家口市沽源县丰源店乡庙子沟村",
      "admin_division_code": "130724000000",
      "admin_authority": "河北水文",
      "admin_division_name": "冀-沽源县",
      "station_level": "7",
      "area_code": "130724",
      "source_row_index": 3832
    },
    {
      "station_id": "01924650",
      "system_id": "FXPP6412",
      "station_name": "小河子",
      "river_name": "葫芦河",
      "basin_name": "河北北部内陆河",
      "longitude": 115.645306,
      "latitude": 41.569278,
      "station_location": "河北省张家口市沽源县小河子乡东滩村",
      "admin_division_code": "130724000000",
      "admin_authority": "河北水文",
      "admin_division_name": "冀-沽源县",
      "station_level": "7",
      "area_code": "130724",
      "source_row_index": 3833
    },
    {
      "station_id": "01924700",
      "system_id": "FXPP6413",
      "station_name": "小厂",
      "river_name": "葫芦河",
      "basin_name": "河北北部内陆河",
      "longitude": 115.792306,
      "latitude": 41.428139,
      "station_location": "河北省张家口市沽源县小厂镇小厂村",
      "admin_division_code": "130724000000",
      "admin_authority": "河北水文",
      "admin_division_name": "冀-沽源县",
      "station_level": "7",
      "area_code": "130724",
      "source_row_index": 3834
    },
    {
      "station_id": "01924800",
      "system_id": "FXPP6414",
      "station_name": "石头城水库",
      "river_name": "葫芦河",
      "basin_name": "河北北部内陆河",
      "longitude": 115.757583,
      "latitude": 41.512333,
      "station_location": "河北省张家口市沽源县小河子乡野马营村",
      "admin_division_code": "130724000000",
      "admin_authority": "河北水文",
      "admin_division_name": "冀-沽源县",
      "station_level": "7",
      "area_code": "130724",
      "source_row_index": 3835
    },
    {
      "station_id": "01924900",
      "system_id": "FXPP6415",
      "station_name": "大恒店",
      "river_name": "葫芦河",
      "basin_name": "河北北部内陆河",
      "longitude": 115.476222,
      "latitude": 41.658583,
      "station_location": "河北省张家口市沽源县白土窑乡大恒店村",
      "admin_division_code": "130724000000",
      "admin_authority": "河北水文",
      "admin_division_name": "冀-沽源县",
      "station_level": "7",
      "area_code": "130724",
      "source_row_index": 3836
    },
    {
      "station_id": "01924950",
      "system_id": "FXPP6416",
      "station_name": "东房子",
      "river_name": "二道营河",
      "basin_name": "河北北部内陆河",
      "longitude": 115.524333,
      "latitude": 41.397111,
      "station_location": "河北省张家口市沽源县莲花滩乡莲花滩村",
      "admin_division_code": "130724000000",
      "admin_authority": "河北水文",
      "admin_division_name": "冀-沽源县",
      "station_level": "7",
      "area_code": "130724",
      "source_row_index": 3837
    },
    {
      "station_id": "01925000",
      "system_id": "FXPP6417",
      "station_name": "五甲地",
      "river_name": "二道营河",
      "basin_name": "河北北部内陆河",
      "longitude": 115.507611,
      "latitude": 41.502889,
      "station_location": "河北省张家口市沽源县西辛营乡五甲地村",
      "admin_division_code": "130724000000",
      "admin_authority": "河北水文",
      "admin_division_name": "冀-沽源县",
      "station_level": "7",
      "area_code": "130724",
      "source_row_index": 3838
    },
    {
      "station_id": "01925050",
      "system_id": "FXPP6418",
      "station_name": "河东",
      "river_name": "平定堡河",
      "basin_name": "河北北部内陆河",
      "longitude": 115.690611,
      "latitude": 41.637889,
      "station_location": "河北省张家口市沽源县平定堡镇河东村",
      "admin_division_code": "130724000000",
      "admin_authority": "河北水文",
      "admin_division_name": "冀-沽源县",
      "station_level": "7",
      "area_code": "130724",
      "source_row_index": 3839
    },
    {
      "station_id": "01925100",
      "system_id": "FXPP6419",
      "station_name": "沽源",
      "river_name": "平定堡小河",
      "basin_name": "河北北部内陆河",
      "longitude": 115.700278,
      "latitude": 41.667222,
      "station_location": "河北省张家口市沽源县平定堡镇新城街东路14号",
      "admin_division_code": "130724000000",
      "admin_authority": "河北水文",
      "admin_division_name": "冀-沽源县",
      "station_level": "7",
      "area_code": "130724",
      "source_row_index": 3840
    },
    {
      "station_id": "01951502",
      "system_id": "FXPP6420",
      "station_name": "海流图水库",
      "river_name": "三台河",
      "basin_name": "河北北部内陆河",
      "longitude": 114.454083,
      "latitude": 41.235,
      "station_location": "河北省张家口市张北县海流图乡",
      "admin_division_code": "130722000000",
      "admin_authority": "河北水文",
      "admin_division_name": "",
      "station_level": "7",
      "area_code": "130722",
      "source_row_index": 3841
    },
    {
      "station_id": "01951504",
      "system_id": "FXPP6421",
      "station_name": "单晶河水库",
      "river_name": "三台河",
      "basin_name": "河北北部内陆河",
      "longitude": 114.38,
      "latitude": 41.17,
      "station_location": "河北省张家口市张北县单晶河乡单晶河村",
      "admin_division_code": "130722000000",
      "admin_authority": "河北水文",
      "admin_division_name": "",
      "station_level": "7",
      "area_code": "130722",
      "source_row_index": 3842
    },
    {
      "station_id": "01951506",
      "system_id": "FXPP6422",
      "station_name": "马家村水库",
      "river_name": "三台河",
      "basin_name": "河北北部内陆河",
      "longitude": 114.43,
      "latitude": 41.18,
      "station_location": "河北省张家口市张北县单晶河乡马家村",
      "admin_division_code": "130722000000",
      "admin_authority": "河北水文",
      "admin_division_name": "",
      "station_level": "7",
      "area_code": "130722",
      "source_row_index": 3843
    },
    {
      "station_id": "01951514",
      "system_id": "FXPP6423",
      "station_name": "大营滩水库",
      "river_name": "台路沟河",
      "basin_name": "河北北部内陆河",
      "longitude": 114.598056,
      "latitude": 41.085278,
      "station_location": "河北省张家口市张北县台路沟乡",
      "admin_division_code": "130722000000",
      "admin_authority": "河北水文",
      "admin_division_name": "",
      "station_level": "7",
      "area_code": "130722",
      "source_row_index": 3844
    },
    {
      "station_id": "01951516",
      "system_id": "FXPP6424",
      "station_name": "小二台水库",
      "river_name": "东洋河",
      "basin_name": "河北北部内陆河",
      "longitude": 114.88,
      "latitude": 41.17,
      "station_location": "河北省张家口市张北县小二台镇",
      "admin_division_code": "130722000000",
      "admin_authority": "河北水文",
      "admin_division_name": "",
      "station_level": "7",
      "area_code": "130722",
      "source_row_index": 3845
    },
    {
      "station_id": "01951520",
      "system_id": "FXPP6425",
      "station_name": "万宝庄",
      "river_name": "北壕堑河",
      "basin_name": "河北北部内陆河",
      "longitude": 115.230736,
      "latitude": 41.261029,
      "station_location": "河北省张家口市张北县大囫囵镇万宝庄村",
      "admin_division_code": "130722000000",
      "admin_authority": "河北水文",
      "admin_division_name": "",
      "station_level": "7",
      "area_code": "130722",
      "source_row_index": 3846
    },
    {
      "station_id": "01951532",
      "system_id": "FXPP6426",
      "station_name": "席麻沟",
      "river_name": "北壕堑河",
      "basin_name": "河北北部内陆河",
      "longitude": 115.146391,
      "latitude": 41.316002,
      "station_location": "河北省张家口市张北县大囫囵镇席麻沟村",
      "admin_division_code": "130722000000",
      "admin_authority": "河北水文",
      "admin_division_name": "",
      "station_level": "7",
      "area_code": "130722",
      "source_row_index": 3847
    },
    {
      "station_id": "01951534",
      "system_id": "FXPP6427",
      "station_name": "二道湾",
      "river_name": "大囫囵河",
      "basin_name": "河北北部内陆河",
      "longitude": 115.281886,
      "latitude": 41.266347,
      "station_location": "河北省张家口市张北县大囫囵镇二道湾村",
      "admin_division_code": "130722000000",
      "admin_authority": "河北水文",
      "admin_division_name": "",
      "station_level": "7",
      "area_code": "130722",
      "source_row_index": 3848
    },
    {
      "station_id": "01951536",
      "system_id": "FXPP6428",
      "station_name": "三塔户",
      "river_name": "北壕堑河",
      "basin_name": "河北北部内陆河",
      "longitude": 115.100992,
      "latitude": 41.265302,
      "station_location": "河北省张家口市张北县白庙滩乡三塔户村",
      "admin_division_code": "130722000000",
      "admin_authority": "河北水文",
      "admin_division_name": "",
      "station_level": "7",
      "area_code": "130722",
      "source_row_index": 3849
    },
    {
      "station_id": "01951538",
      "system_id": "FXPP6429",
      "station_name": "冯家营",
      "river_name": "北壕堑河",
      "basin_name": "河北北部内陆河",
      "longitude": 115.086091,
      "latitude": 41.327574,
      "station_location": "河北省张家口市张北县大囫囵镇冯家营村",
      "admin_division_code": "130722000000",
      "admin_authority": "河北水文",
      "admin_division_name": "",
      "station_level": "7",
      "area_code": "130722",
      "source_row_index": 3850
    },
    {
      "station_id": "01951542",
      "system_id": "FXPP6430",
      "station_name": "徐家营",
      "river_name": "北壕堑河",
      "basin_name": "河北北部内陆河",
      "longitude": 115.066454,
      "latitude": 41.351024,
      "station_location": "河北省张家口市张北县大囫囵镇徐家营村",
      "admin_division_code": "130722000000",
      "admin_authority": "河北水文",
      "admin_division_name": "",
      "station_level": "7",
      "area_code": "130722",
      "source_row_index": 3851
    },
    {
      "station_id": "01951544",
      "system_id": "FXPP6431",
      "station_name": "河心",
      "river_name": "大囫囵河",
      "basin_name": "河北北部内陆河",
      "longitude": 115.254052,
      "latitude": 41.295955,
      "station_location": "河北省张家口市张北县大囫囵镇河心村",
      "admin_division_code": "130722000000",
      "admin_authority": "河北水文",
      "admin_division_name": "",
      "station_level": "7",
      "area_code": "130722",
      "source_row_index": 3852
    },
    {
      "station_id": "01951550",
      "system_id": "FXPP6432",
      "station_name": "红沙滩",
      "river_name": "大囫囵河",
      "basin_name": "河北北部内陆河",
      "longitude": 115.160985,
      "latitude": 41.349308,
      "station_location": "河北省张家口市张北县大囫囵镇红沙滩村",
      "admin_division_code": "130722000000",
      "admin_authority": "河北水文",
      "admin_division_name": "",
      "station_level": "7",
      "area_code": "130722",
      "source_row_index": 3853
    },
    {
      "station_id": "01951552",
      "system_id": "FXPP6433",
      "station_name": "黑石头山",
      "river_name": "大囫囵河",
      "basin_name": "河北北部内陆河",
      "longitude": 115.197992,
      "latitude": 41.375035,
      "station_location": "河北省张家口市张北县大囫囵镇黑石头山村",
      "admin_division_code": "130722000000",
      "admin_authority": "河北水文",
      "admin_division_name": "",
      "station_level": "7",
      "area_code": "130722",
      "source_row_index": 3854
    },
    {
      "station_id": "01951554",
      "system_id": "FXPP6434",
      "station_name": "郝家营",
      "river_name": "大囫囵河",
      "basin_name": "河北北部内陆河",
      "longitude": 115.144756,
      "latitude": 41.381727,
      "station_location": "河北省张家口市张北县大囫囵镇郝家营村",
      "admin_division_code": "130722000000",
      "admin_authority": "河北水文",
      "admin_division_name": "",
      "station_level": "7",
      "area_code": "130722",
      "source_row_index": 3855
    },