{
  "station_count": 7648,
  "stations": [
    {
      "station_id": "0090820009",
      "system_id": "FXLY0160",
      "station_name": "苇子水水库",
      "basin_name": "",
      "admin_authority": "永定河管理处",
      "admin_division_name": "门头沟区",
      "lon": 115.87344,
      "lat": 40.156541,
      "is_fortress_anchor": false,
      "is_tongzhou_anchor": false,
      "is_cross_boundary_anchor": false
    },
    {
      "station_id": "01303A3200",
      "system_id": "FXPP3100",
      "station_name": "太师屯",
      "basin_name": "潮白河流域",
      "admin_authority": "水文总站",
      "admin_division_name": "密云区",
      "lon": 117.118248,
      "lat": 40.533834,
      "is_fortress_anchor": false,
      "is_tongzhou_anchor": false,
      "is_cross_boundary_anchor": false
    },
    {
      "station_id": "01303A5000",
      "system_id": "FXPP3101",
      "station_name": "龙潭沟村",
      "basin_name": "潮白河流域",
      "admin_authority": "水文总站",
      "admin_division_name": "密云区",
      "lon": 117.062033,
      "lat": 40.496812,
      "is_fortress_anchor": false,
      "is_tongzhou_anchor": false,
      "is_cross_boundary_anchor": false
    },
    {
      "station_id": "01303A5001",
      "system_id": "FXPP3102",
      "station_name": "前八家庄村",
      "basin_name": "潮白河流域",
      "admin_authority": "水文总站",
      "admin_division_name": "密云区",
      "lon": 117.026164,
      "lat": 40.494225,
      "is_fortress_anchor": false,
      "is_tongzhou_anchor": false,
      "is_cross_boundary_anchor": false
    },
    {
      "station_id": "01303A5002",
      "system_id": "FXPP3103",
      "station_name": "水漳村",
      "basin_name": "潮白河流域",
      "admin_authority": "水文总站",
      "admin_division_name": "密云区",
      "lon": 116.891874,
      "lat": 40.419767,
      "is_fortress_anchor": false,
      "is_tongzhou_anchor": false,
      "is_cross_boundary_anchor": false
    },
    {
      "station_id": "01303A5003",
      "system_id": "FXPP3104",
      "station_name": "石城村",
      "basin_name": "潮白河流域",
      "admin_authority": "水文总站",
      "admin_division_name": "密云区",
      "lon": 116.815705,
      "lat": 40.541244,
      "is_fortress_anchor": false,
      "is_tongzhou_anchor": false,
      "is_cross_boundary_anchor": false
    },
    {
      "station_id": "01303A5004",
      "system_id": "FXPP3105",
      "station_name": "张家坟村",
      "basin_name": "潮白河流域",
      "admin_authority": "水文总站",
      "admin_division_name": "密云区",
      "lon": 116.78184,
      "lat": 40.612873,
      "is_fortress_anchor": false,
      "is_tongzhou_anchor": false,
      "is_cross_boundary_anchor": false
    },
    {
      "station_id": "01303A5005",
      "system_id": "FXPP3106",
      "station_name": "孙家沟",
      "basin_name": "潮白河流域",
      "admin_authority": "水文总站",
      "admin_division_name": "密云区",
      "lon": 117.055428,
      "lat": 40.345036,
      "is_fortress_anchor": false,
      "is_tongzhou_anchor": false,
      "is_cross_boundary_anchor": false
    },
    {
      "station_id": "01303A5006",
      "system_id": "FXPP3107",
      "station_name": "半截峪",
      "basin_name": "潮白河流域",
      "admin_authority": "水文总站",
      "admin_division_name": "密云区",
      "lon": 117.051161,
      "lat": 40.429082,
      "is_fortress_anchor": false,
      "is_tongzhou_anchor": false,
      "is_cross_boundary_anchor": false
    },
    {
      "station_id": "01303A5007",
      "system_id": "FXPP3108",
      "station_name": "北庄村",
      "basin_name": "潮白河流域",
      "admin_authority": "水文总站",
      "admin_division_name": "密云区",
      "lon": 117.162649,
      "lat": 40.519078,
      "is_fortress_anchor": false,
      "is_tongzhou_anchor": false,
      "is_cross_boundary_anchor": false
    },
    {
      "station_id": "01303A5008",
      "system_id": "FXPP3109",
      "station_name": "秀才峪",
      "basin_name": "潮白河流域",
      "admin_authority": "水文总站",
      "admin_division_name": "密云区",
      "lon": 116.927565,
      "lat": 40.594132,
      "is_fortress_anchor": false,
      "is_tongzhou_anchor": false,
      "is_cross_boundary_anchor": false
    },
    {
      "station_id": "01303A5009",
      "system_id": "FXPP3110",
      "station_name": "遥桥峪村",
      "basin_name": "潮白河流域",
      "admin_authority": "水文总站",
      "admin_division_name": "密云区",
      "lon": 117.382775,
      "lat": 40.632433,
      "is_fortress_anchor": false,
      "is_tongzhou_anchor": false,
      "is_cross_boundary_anchor": false
    },
    {
      "station_id": "01303A5010",
      "system_id": "FXPP3111",
      "station_name": "车道峪",
      "basin_name": "潮白河流域",
      "admin_authority": "水文总站",
      "admin_division_name": "密云区",
      "lon": 117.192404,
      "lat": 40.580354,
      "is_fortress_anchor": false,
      "is_tongzhou_anchor": false,
      "is_cross_boundary_anchor": false
    },
    {
      "station_id": "01303A5011",
      "system_id": "FXPP3112",
      "station_name": "涝洼村南沟",
      "basin_name": "潮白河流域",
      "admin_authority": "水文总站",
      "admin_division_name": "密云区",
      "lon": 117.238781,
      "lat": 40.622417,
      "is_fortress_anchor": false,
      "is_tongzhou_anchor": false,
      "is_cross_boundary_anchor": false
    },
    {
      "station_id": "01303A5012",
      "system_id": "FXPP3113",
      "station_name": "小开岭村",
      "basin_name": "潮白河流域",
      "admin_authority": "水文总站",
      "admin_division_name": "密云区",
      "lon": 117.109339,
      "lat": 40.615488,
      "is_fortress_anchor": false,
      "is_tongzhou_anchor": false,
      "is_cross_boundary_anchor": false
    },
    {
      "station_id": "01303A5013",
      "system_id": "FXPP3114",
      "station_name": "水泉子",
      "basin_name": "潮白河流域",
      "admin_authority": "水文总站",
      "admin_division_name": "密云区",
      "lon": 116.994864,
      "lat": 40.640912,
      "is_fortress_anchor": false,
      "is_tongzhou_anchor": false,
      "is_cross_boundary_anchor": false
    },
    {
      "station_id": "01303A5014",
      "system_id": "FXPP3115",
      "station_name": "朱家裕",
      "basin_name": "潮白河流域",
      "admin_authority": "水文总站",
      "admin_division_name": "密云区",
      "lon": 116.898568,
      "lat": 40.67926,
      "is_fortress_anchor": false,
      "is_tongzhou_anchor": false,
      "is_cross_boundary_anchor": false
    },
    {
      "station_id": "01303A5016",
      "system_id": "FXPP3116",
      "station_name": "南台子村",
      "basin_name": "潮白河流域",
      "admin_authority": "水文总站",
      "admin_division_name": "密云区",
      "lon": 116.799278,
      "lat": 40.712116,
      "is_fortress_anchor": false,
      "is_tongzhou_anchor": false,
      "is_cross_boundary_anchor": false
    },
    {
      "station_id": "01303A5017",
      "system_id": "FXPP3117",
      "station_name": "红星村 莫岭",
      "basin_name": "潮白河流域",
      "admin_authority": "水文总站",
      "admin_division_name": "密云区",
      "lon": 116.734143,
      "lat": 40.650743,
      "is_fortress_anchor": false,
      "is_tongzhou_anchor": false,
      "is_cross_boundary_anchor": false
    },
    {
      "station_id": "01303A5018",
      "system_id": "FXPP3118",
      "station_name": "山神庙",
      "basin_name": "潮白河流域",
      "admin_authority": "水文总站",
      "admin_division_name": "密云区",
      "lon": 116.809921,
      "lat": 40.645957,
      "is_fortress_anchor": false,
      "is_tongzhou_anchor": false,
      "is_cross_boundary_anchor": false
    },
    {
      "station_id": "01303A5019",
      "system_id": "FXPP3119",
      "station_name": "大树洼村",
      "basin_name": "潮白河流域",
      "admin_authority": "水文总站",
      "admin_division_name": "密云区",
      "lon": 117.322452,
      "lat": 40.594498,
      "is_fortress_anchor": false,
      "is_tongzhou_anchor": false,
      "is_cross_boundary_anchor": false
    },
    {
      "station_id": "01303A5020",
      "system_id": "FXPP3120",
      "station_name": "石匣村",
      "basin_name": "潮白河流域",
      "admin_authority": "水文总站",
      "admin_division_name": "密云区",
      "lon": 117.081871,
      "lat": 40.579191,
      "is_fortress_anchor": false,
      "is_tongzhou_anchor": false,
      "is_cross_boundary_anchor": false
    },
    {
      "station_id": "01303A5045",
      "system_id": "FXPP3121",
      "station_name": "番字牌村",
      "basin_name": "潮白河流域",
      "admin_authority": "水文总站",
      "admin_division_name": "密云区",
      "lon": 116.886036,
      "lat": 40.739033,
      "is_fortress_anchor": false,
      "is_tongzhou_anchor": false,
      "is_cross_boundary_anchor": false
    },
    {
      "station_id": "01303A7000",
      "system_id": "FXPP3122",
      "station_name": "梨园村",
      "basin_name": "大清河流域",
      "admin_authority": "水文总站",
      "admin_division_name": "丰台区",
      "lon": 116.12682,
      "lat": 39.873211,
      "is_fortress_anchor": false,
      "is_tongzhou_anchor": false,
      "is_cross_boundary_anchor": false
    },
    {
      "station_id": "01303A7001",
      "system_id": "FXPP3123",
      "station_name": "后甫营",
      "basin_name": "大清河流域",
      "admin_authority": "水文总站",
      "admin_division_name": "丰台区",
      "lon": 116.085824,
      "lat": 39.847277,
      "is_fortress_anchor": false,
      "is_tongzhou_anchor": false,
      "is_cross_boundary_anchor": false
    },
    {
      "station_id": "01303A9000",
      "system_id": "FXPP3124",
      "station_name": "苗营村",
      "basin_name": "潮白河流域",
      "admin_authority": "水文总站",
      "admin_division_name": "怀柔区",
      "lon": 116.559445,
      "lat": 40.892915,
      "is_fortress_anchor": false,
      "is_tongzhou_anchor": false,
      "is_cross_boundary_anchor": false
    },
    {
      "station_id": "01303A9001",
      "system_id": "FXPP3125",
      "station_name": "西府营",
      "basin_name": "潮白河流域",
      "admin_authority": "水文总站",
      "admin_division_name": "怀柔区",
      "lon": 116.63043,
      "lat": 40.930569,
      "is_fortress_anchor": false,
      "is_tongzhou_anchor": false,
      "is_cross_boundary_anchor": false
    },
    {
      "station_id": "01303A9002",
      "system_id": "FXPP3126",
      "station_name": "长元村",
      "basin_name": "潮白河流域",
      "admin_authority": "水文总站",
      "admin_division_name": "怀柔区",
      "lon": 116.580258,
      "lat": 40.430118,
      "is_fortress_anchor": false,
      "is_tongzhou_anchor": false,
      "is_cross_boundary_anchor": false
    },
    {
      "station_id": "01303A9003",
      "system_id": "FXPP3127",
      "station_name": "二号沟门",
      "basin_name": "潮白河流域",
      "admin_authority": "水文总站",
      "admin_division_name": "怀柔区",
      "lon": 116.55369,
      "lat": 40.821979,
      "is_fortress_anchor": false,
      "is_tongzhou_anchor": false,
      "is_cross_boundary_anchor": false
    },
    {
      "station_id": "01303A9004",
      "system_id": "FXPP3128",
      "station_name": "八道河",
      "basin_name": "潮白河流域",
      "admin_authority": "水文总站",
      "admin_division_name": "怀柔区",
      "lon": 116.568789,
      "lat": 40.480967,
      "is_fortress_anchor": false,
      "is_tongzhou_anchor": false,
      "is_cross_boundary_anchor": false
    },
    {
      "station_id": "01303A9005",
      "system_id": "FXPP3129",
      "station_name": "老西沟",
      "basin_name": "潮白河流域",
      "admin_authority": "水文总站",
      "admin_division_name": "怀柔区",
      "lon": 116.72908,
      "lat": 40.788589,
      "is_fortress_anchor": false,
      "is_tongzhou_anchor": false,
      "is_cross_boundary_anchor": false
    },
    {
      "station_id": "01303A9006",
      "system_id": "FXPP3130",
      "station_name": "长哨营村",
      "basin_name": "潮白河流域",
      "admin_authority": "水文总站",
      "admin_division_name": "怀柔区",
      "lon": 116.747805,
      "lat": 40.785085,
      "is_fortress_anchor": false,
      "is_tongzhou_anchor": false,
      "is_cross_boundary_anchor": false
    },
    {
      "station_id": "01303A9007",
      "system_id": "FXPP3131",
      "station_name": "四渡河",
      "basin_name": "潮白河流域",
      "admin_authority": "水文总站",
      "admin_division_name": "怀柔区",
      "lon": 116.473268,
      "lat": 40.33739,
      "is_fortress_anchor": false,
      "is_tongzhou_anchor": false,
      "is_cross_boundary_anchor": false
    },
    {
      "station_id": "01303A9008",
      "system_id": "FXPP3132",
      "station_name": "鹞子峪",
      "basin_name": "潮白河流域",
      "admin_authority": "水文总站",
      "admin_division_name": "怀柔区",
      "lon": 116.322234,
      "lat": 40.421754,
      "is_fortress_anchor": false,
      "is_tongzhou_anchor": false,
      "is_cross_boundary_anchor": false
    },
    {
      "station_id": "01303A9009",
      "system_id": "FXPP3133",
      "station_name": "黄花镇",
      "basin_name": "潮白河流域",
      "admin_authority": "水文总站",
      "admin_division_name": "怀柔区",
      "lon": 116.357893,
      "lat": 40.394379,
      "is_fortress_anchor": false,
      "is_tongzhou_anchor": false,
      "is_cross_boundary_anchor": false
    },
    {
      "station_id": "01303A9010",
      "system_id": "FXPP3134",
      "station_name": "菜树甸",
      "basin_name": "潮白河流域",
      "admin_authority": "水文总站",
      "admin_division_name": "怀柔区",
      "lon": 116.485072,
      "lat": 40.786177,
      "is_fortress_anchor": false,
      "is_tongzhou_anchor": false,
      "is_cross_boundary_anchor": false
    },
    {
      "station_id": "01303A9011",
      "system_id": "FXPP3135",
      "station_name": "大沟门",
      "basin_name": "潮白河流域",
      "admin_authority": "水文总站",
      "admin_division_name": "怀柔区",
      "lon": 116.552347,
      "lat": 40.69168,
      "is_fortress_anchor": false,
      "is_tongzhou_anchor": false,
      "is_cross_boundary_anchor": false
    },
    {
      "station_id": "01303A9012",
      "system_id": "FXPP3136",
      "station_name": "白木村",
      "basin_name": "潮白河流域",
      "admin_authority": "水文总站",
      "admin_division_name": "怀柔区",
      "lon": 116.45997,
      "lat": 40.422749,
      "is_fortress_anchor": false,
      "is_tongzhou_anchor": false,
      "is_cross_boundary_anchor": false
    },
    {
      "station_id": "01303A9013",
      "system_id": "FXPP3137",
      "station_name": "汤河口",
      "basin_name": "潮白河流域",
      "admin_authority": "水文总站",
      "admin_division_name": "怀柔区",
      "lon": 116.640644,
      "lat": 40.71903,
      "is_fortress_anchor": false,
      "is_tongzhou_anchor": false,
      "is_cross_boundary_anchor": false
    },
    {
      "station_id": "01303A9014",
      "system_id": "FXPP3138",
      "station_name": "裕口村",
      "basin_name": "潮白河流域",
      "admin_authority": "水文总站",
      "admin_division_name": "怀柔区",
      "lon": 116.525556,
      "lat": 40.344444,
      "is_fortress_anchor": false,
      "is_tongzhou_anchor": false,
      "is_cross_boundary_anchor": false
    },
    {
      "station_id": "01303A9015",
      "system_id": "FXPP3139",
      "station_name": "老公营",
      "basin_name": "潮白河流域",
      "admin_authority": "水文总站",
      "admin_division_name": "怀柔区",
      "lon": 116.624951,
      "lat": 40.631878,
      "is_fortress_anchor": false,
      "is_tongzhou_anchor": false,
      "is_cross_boundary_anchor": false
    },
    {
      "station_id": "01303A9016",
      "system_id": "FXPP3140",
      "station_name": "孙胡沟",
      "basin_name": "潮白河流域",
      "admin_authority": "水文总站",
      "admin_division_name": "怀柔区",
      "lon": 116.595536,
      "lat": 40.564767,
      "is_fortress_anchor": false,
      "is_tongzhou_anchor": false,
      "is_cross_boundary_anchor": false
    },
    {
      "station_id": "01304A9000",
      "system_id": "FXPP3141",
      "station_name": "松棚村",
      "basin_name": "蓟运河流域",
      "admin_authority": "水文总站",
      "admin_division_name": "平谷区",
      "lon": 116.977339,
      "lat": 40.256757,
      "is_fortress_anchor": false,
      "is_tongzhou_anchor": false,
      "is_cross_boundary_anchor": false
    },
    {
      "station_id": "01304A9001",
      "system_id": "FXPP3142",
      "station_name": "李家峪村",
      "basin_name": "蓟运河流域",
      "admin_authority": "水文总站",
      "admin_division_name": "平谷区",
      "lon": 117.015356,
      "lat": 40.317778,
      "is_fortress_anchor": false,
      "is_tongzhou_anchor": false,
      "is_cross_boundary_anchor": false
    },
    {
      "station_id": "01304A9002",
      "system_id": "FXPP3143",
      "station_name": "苏子峪村",
      "basin_name": "蓟运河流域",
      "admin_authority": "水文总站",
      "admin_division_name": "平谷区",
      "lon": 117.085183,
      "lat": 40.246489,
      "is_fortress_anchor": false,
      "is_tongzhou_anchor": false,
      "is_cross_boundary_anchor": false
    },
    {
      "station_id": "01304A9003",
      "system_id": "FXPP3144",
      "station_name": "鱼子山村",
      "basin_name": "蓟运河流域",
      "admin_authority": "水文总站",
      "admin_division_name": "平谷区",
      "lon": 117.16028,
      "lat": 40.22977,
      "is_fortress_anchor": false,
      "is_tongzhou_anchor": false,
      "is_cross_boundary_anchor": false
    },
    {
      "station_id": "01304A9004",
      "system_id": "FXPP3145",
      "station_name": "东马各庄",
      "basin_name": "蓟运河流域",
      "admin_authority": "水文总站",
      "admin_division_name": "平谷区",
      "lon": 117.334756,
      "lat": 40.184937,
      "is_fortress_anchor": false,
      "is_tongzhou_anchor": false,
      "is_cross_boundary_anchor": false
    },
    {
      "station_id": "01304A9005",
      "system_id": "FXPP3146",
      "station_name": "黄草窪村",
      "basin_name": "蓟运河流域",
      "admin_authority": "水文总站",
      "admin_division_name": "平谷区",
      "lon": 117.332442,
      "lat": 40.191294,
      "is_fortress_anchor": false,
      "is_tongzhou_anchor": false,
      "is_cross_boundary_anchor": false
    },
    {
      "station_id": "01304A9006",
      "system_id": "FXPP3147",
      "station_name": "水峪村",
      "basin_name": "蓟运河流域",
      "admin_authority": "水文总站",
      "admin_division_name": "平谷区",
      "lon": 117.279997,
      "lat": 40.164512,
      "is_fortress_anchor": false,
      "is_tongzhou_anchor": false,
      "is_cross_boundary_anchor": false
    },
    {
      "station_id": "01304A9007",
      "system_id": "FXPP3148",
      "station_name": "北寨村",
      "basin_name": "蓟运河流域",
      "admin_authority": "水文总站",
      "admin_division_name": "平谷区",
      "lon": 117.201583,
      "lat": 40.246275,
      "is_fortress_anchor": false,
      "is_tongzhou_anchor": false,
      "is_cross_boundary_anchor": false
    },
    {
      "station_id": "01305A3769",
      "system_id": "FXPP3149",
      "station_name": "八大处",
      "basin_name": "北运河流域",
      "admin_authority": "水文总站",
      "admin_division_name": "石景山区",
      "lon": 116.181184,
      "lat": 39.958022,
      "is_fortress_anchor": false,
      "is_tongzhou_anchor": false,
      "is_cross_boundary_anchor": false
    },
    {
      "station_id": "01305A5000",
      "system_id": "FXPP3150",
      "station_name": "漆园",
      "basin_name": "北运河流域",
      "admin_authority": "水文总站",
      "admin_division_name": "昌平区",
      "lon": 116.043177,
      "lat": 40.158213,
      "is_fortress_anchor": false,
      "is_tongzhou_anchor": false,
      "is_cross_boundary_anchor": false
    },
    {
      "station_id": "01305A5001",
      "system_id": "FXPP3151",
      "station_name": "桃峪口村",
      "basin_name": "北运河流域",
      "admin_authority": "水文总站",
      "admin_division_name": "昌平区",
      "lon": 116.439315,
      "lat": 40.239917,
      "is_fortress_anchor": false,
      "is_tongzhou_anchor": false,
      "is_cross_boundary_anchor": false
    },
    {
      "station_id": "01305A5002",
      "system_id": "FXPP3152",
      "station_name": "高崖口村",
      "basin_name": "北运河流域",
      "admin_authority": "水文总站",
      "admin_division_name": "昌平区",
      "lon": 115.982856,
      "lat": 40.137409,
      "is_fortress_anchor": false,
      "is_tongzhou_anchor": false,
      "is_cross_boundary_anchor": false
    },
    {
      "station_id": "01305A5003",
      "system_id": "FXPP3153",
      "station_name": "禾子涧村",
      "basin_name": "永定河流域",
      "admin_authority": "水文总站",
      "admin_division_name": "昌平区",
      "lon": 115.933825,
      "lat": 40.207434,
      "is_fortress_anchor": false,
      "is_tongzhou_anchor": false,
      "is_cross_boundary_anchor": false
    },
    {
      "station_id": "01305A5004",
      "system_id": "FXPP3154",
      "station_name": "菩萨鹿村",
      "basin_name": "北运河流域",
      "admin_authority": "水文总站",
      "admin_division_name": "昌平区",
      "lon": 115.98166,
      "lat": 40.106851,
      "is_fortress_anchor": false,
      "is_tongzhou_anchor": false,
      "is_cross_boundary_anchor": false
    },
    {
      "station_id": "01305A5005",
      "system_id": "FXPP3155",
      "station_name": "木厂村",
      "basin_name": "北运河流域",
      "admin_authority": "水文总站",
      "admin_division_name": "昌平区",
      "lon": 116.417945,
      "lat": 40.312339,
      "is_fortress_anchor": false,
      "is_tongzhou_anchor": false,
      "is_cross_boundary_anchor": false
    },
    {
      "station_id": "01305A5006",
      "system_id": "FXPP3156",
      "station_name": "西湖村",
      "basin_name": "北运河流域",
      "admin_authority": "水文总站",
      "admin_division_name": "昌平区",
      "lon": 116.313295,
      "lat": 40.319824,
      "is_fortress_anchor": false,
      "is_tongzhou_anchor": false,
      "is_cross_boundary_anchor": false
    },
    {
      "station_id": "01305A5007",
      "system_id": "FXPP3157",
      "station_name": "上庄村",
      "basin_name": "北运河流域",
      "admin_authority": "水文总站",
      "admin_division_name": "昌平区",
      "lon": 116.362901,
      "lat": 40.291244,
      "is_fortress_anchor": false,
      "is_tongzhou_anchor": false,
      "is_cross_boundary_anchor": false
    },
    {
      "station_id": "01305A6000",
      "system_id": "FXPP3158",
      "station_name": "鹫峰",
      "basin_name": "北运河流域",
      "admin_authority": "水文总站",
      "admin_division_name": "海淀区",
      "lon": 116.091626,
      "lat": 40.059975,
      "is_fortress_anchor": false,
      "is_tongzhou_anchor": false,
      "is_cross_boundary_anchor": false
    },
    {
      "station_id": "01307A0900",
      "system_id": "FXPP3159",
      "station_name": "礼贤",
      "basin_name": "永定河流域",
      "admin_authority": "水文总站",
      "admin_division_name": "大兴区",
      "lon": 116.236382,
      "lat": 39.58504,
      "is_fortress_anchor": false,
      "is_tongzhou_anchor": false,
      "is_cross_boundary_anchor": false
    },
    {
      "station_id": "01307A5000",
      "system_id": "FXPP3160",
      "station_name": "赵家台",
      "basin_name": "大清河流域",
      "admin_authority": "水文总站",
      "admin_division_name": "门头沟区",
      "lon": 115.979298,
      "lat": 39.918619,
      "is_fortress_anchor": false,
      "is_tongzhou_anchor": false,
      "is_cross_boundary_anchor": false
    },
    {
      "station_id": "01307A5001",
      "system_id": "FXPP3161",
      "station_name": "爨底下",
      "basin_name": "永定河流域",
      "admin_authority": "水文总站",
      "admin_division_name": "门头沟区",
      "lon": 115.652226,
      "lat": 40.003416,
      "is_fortress_anchor": false,
      "is_tongzhou_anchor": false,
      "is_cross_boundary_anchor": false
    },
    {
      "station_id": "01307A5002",
      "system_id": "FXPP3162",
      "station_name": "沿河城",
      "basin_name": "永定河流域",
      "admin_authority": "水文总站",
      "admin_division_name": "门头沟区",
      "lon": 115.718578,
      "lat": 40.067379,
      "is_fortress_anchor": false,
      "is_tongzhou_anchor": false,
      "is_cross_boundary_anchor": false
    },
    {
      "station_id": "01307A5003",
      "system_id": "FXPP3163",
      "station_name": "杨家村",
      "basin_name": "永定河流域",
      "admin_authority": "水文总站",
      "admin_division_name": "门头沟区",
      "lon": 115.793946,
      "lat": 39.951557,
      "is_fortress_anchor": false,
      "is_tongzhou_anchor": false,
      "is_cross_boundary_anchor": false
    },
    {
      "station_id": "01307A5004",
      "system_id": "FXPP3164",
      "station_name": "樱桃沟",
      "basin_name": "永定河流域",
      "admin_authority": "水文总站",
      "admin_division_name": "门头沟区",
      "lon": 116.044444,
      "lat": 40.040278,
      "is_fortress_anchor": false,
      "is_tongzhou_anchor": false,
      "is_cross_boundary_anchor": false
    },
    {
      "station_id": "01307A5005",
      "system_id": "FXPP3165",
      "station_name": "马套村",
      "basin_name": "永定河流域",
      "admin_authority": "水文总站",
      "admin_division_name": "门头沟区",
      "lon": 115.814942,
      "lat": 40.12674,
      "is_fortress_anchor": false,
      "is_tongzhou_anchor": false,
      "is_cross_boundary_anchor": false
    },
    {
      "station_id": "01307A5006",
      "system_id": "FXPP3166",
      "station_name": "田庄",
      "basin_name": "永定河流域",
      "admin_authority": "水文总站",
      "admin_division_name": "门头沟区",
      "lon": 115.907284,
      "lat": 40.085241,
      "is_fortress_anchor": false,
      "is_tongzhou_anchor": false,
      "is_cross_boundary_anchor": false
    },
    {
      "station_id": "01307A5007",
      "system_id": "FXPP3167",
      "station_name": "千军台",
      "basin_name": "永定河流域",
      "admin_authority": "水文总站",
      "admin_division_name": "门头沟区",
      "lon": 115.901438,
      "lat": 39.945959,
      "is_fortress_anchor": false,
      "is_tongzhou_anchor": false,
      "is_cross_boundary_anchor": false
    },
    {
      "station_id": "01307A5008",
      "system_id": "FXPP3168",
      "station_name": "西王平",
      "basin_name": "永定河流域",
      "admin_authority": "水文总站",
      "admin_division_name": "门头沟区",
      "lon": 115.972433,
      "lat": 39.967605,
      "is_fortress_anchor": false,
      "is_tongzhou_anchor": false,
      "is_cross_boundary_anchor": false
    },
    {
      "station_id": "01307A5009",
      "system_id": "FXPP3169",
      "station_name": "黄塔村",
      "basin_name": "永定河流域",
      "admin_authority": "水文总站",
      "admin_division_name": "门头沟区",
      "lon": 115.55795,
      "lat": 39.86648,
      "is_fortress_anchor": false,
      "is_tongzhou_anchor": false,
      "is_cross_boundary_anchor": false
    },
    {
      "station_id": "01307A5010",
      "system_id": "FXPP3170",
      "station_name": "洪水口",
      "basin_name": "永定河流域",
      "admin_authority": "水文总站",
      "admin_division_name": "门头沟区",
      "lon": 115.478056,
      "lat": 39.989444,
      "is_fortress_anchor": false,
      "is_tongzhou_anchor": false,
      "is_cross_boundary_anchor": false
    },
    {
      "station_id": "01307A5011",
      "system_id": "FXPP3171",
      "station_name": "洪水峪",
      "basin_name": "永定河流域",
      "admin_authority": "水文总站",
      "admin_division_name": "门头沟区",
      "lon": 115.656748,
      "lat": 39.903509,
      "is_fortress_anchor": false,
      "is_tongzhou_anchor": false,
      "is_cross_boundary_anchor": false
    },
    {
      "station_id": "01307A5012",
      "system_id": "FXPP3172",
      "station_name": "燕家台",
      "basin_name": "永定河流域",
      "admin_authority": "水文总站",
      "admin_division_name": "门头沟区",
      "lon": 115.561111,
      "lat": 40.0025,
      "is_fortress_anchor": false,
      "is_tongzhou_anchor": false,
      "is_cross_boundary_anchor": false
    },
    {
      "station_id": "01307A5013",
      "system_id": "FXPP3173",
      "station_name": "珠窝村",
      "basin_name": "永定河流域",
      "admin_authority": "水文总站",
      "admin_division_name": "门头沟区",
      "lon": 115.787954,
      "lat": 40.051697,
      "is_fortress_anchor": false,
      "is_tongzhou_anchor": false,
      "is_cross_boundary_anchor": false
    },
    {
      "station_id": "01307A5014",
      "system_id": "FXPP3174",
      "station_name": "香峪村",
      "basin_name": "永定河流域",
      "admin_authority": "水文总站",
      "admin_division_name": "门头沟区",
      "lon": 116.131046,
      "lat": 39.995945,
      "is_fortress_anchor": false,
      "is_tongzhou_anchor": false,
      "is_cross_boundary_anchor": false
    },
    {
      "station_id": "01307A5015",
      "system_id": "FXPP3175",
      "station_name": "大村",
      "basin_name": "永定河流域",
      "admin_authority": "水文总站",
      "admin_division_name": "门头沟区",
      "lon": 115.857697,
      "lat": 40.112017,
      "is_fortress_anchor": false,
      "is_tongzhou_anchor": false,
      "is_cross_boundary_anchor": false
    },
    {
      "station_id": "01307A5016",
      "system_id": "FXPP3176",
      "station_name": "雁翅村",
      "basin_name": "永定河流域",
      "admin_authority": "水文总站",
      "admin_division_name": "门头沟区",
      "lon": 115.892852,
      "lat": 40.038142,
      "is_fortress_anchor": false,
      "is_tongzhou_anchor": false,
      "is_cross_boundary_anchor": false
    },
    {
      "station_id": "01307A5017",
      "system_id": "FXPP3177",
      "station_name": "西斋堂村",
      "basin_name": "永定河流域",
      "admin_authority": "水文总站",
      "admin_division_name": "门头沟区",
      "lon": 115.682891,
      "lat": 39.971232,
      "is_fortress_anchor": false,
      "is_tongzhou_anchor": false,
      "is_cross_boundary_anchor": false
    },
    {
      "station_id": "01307A5018",
      "system_id": "FXPP3178",
      "station_name": "梁家庄（台下村）",
      "basin_name": "永定河流域",
      "admin_authority": "水文总站",
      "admin_division_name": "门头沟区",
      "lon": 115.582447,
      "lat": 39.976281,
      "is_fortress_anchor": false,
      "is_tongzhou_anchor": false,
      "is_cross_boundary_anchor": false
    },
    {
      "station_id": "01307A5019",
      "system_id": "FXPP3179",
      "station_name": "马栏村",
      "basin_name": "永定河流域",
      "admin_authority": "水文总站",
      "admin_division_name": "门头沟区",
      "lon": 115.68697,
      "lat": 39.93834,
      "is_fortress_anchor": false,
      "is_tongzhou_anchor": false,
      "is_cross_boundary_anchor": false
    },
    {
      "station_id": "01307A5020",
      "system_id": "FXPP3180",
      "station_name": "向阳口村",
      "basin_name": "永定河流域",
      "admin_authority": "水文总站",
      "admin_division_name": "门头沟区",
      "lon": 115.753425,
      "lat": 40.095182,
      "is_fortress_anchor": false,
      "is_tongzhou_anchor": false,
      "is_cross_boundary_anchor": false
    },
    {
      "station_id": "01307A5021",
      "system_id": "FXPP3181",
      "station_name": "牛战村",
      "basin_name": "永定河流域",
      "admin_authority": "水文总站",
      "admin_division_name": "门头沟区",
      "lon": 115.706058,
      "lat": 40.015232,
      "is_fortress_anchor": false,
      "is_tongzhou_anchor": false,
      "is_cross_boundary_anchor": false
    },
    {
      "station_id": "01307A5022",
      "system_id": "FXPP3182",
      "station_name": "下清水村",
      "basin_name": "永定河流域",
      "admin_authority": "水文总站",
      "admin_division_name": "门头沟区",
      "lon": 115.623132,
      "lat": 39.94446,
      "is_fortress_anchor": false,
      "is_tongzhou_anchor": false,
      "is_cross_boundary_anchor": false
    },
    {
      "station_id": "01307A5023",
      "system_id": "FXPP3183",
      "station_name": "齐家庄村",
      "basin_name": "永定河流域",
      "admin_authority": "水文总站",
      "admin_division_name": "门头沟区",
      "lon": 115.505033,
      "lat": 39.943702,
      "is_fortress_anchor": false,
      "is_tongzhou_anchor": false,
      "is_cross_boundary_anchor": false
    },
    {
      "station_id": "01307A5024",
      "system_id": "FXPP3184",
      "station_name": "塔河村",
      "basin_name": "永定河流域",
      "admin_authority": "水文总站",
      "admin_division_name": "门头沟区",
      "lon": 115.55142,
      "lat": 39.894907,
      "is_fortress_anchor": false,
      "is_tongzhou_anchor": false,
      "is_cross_boundary_anchor": false
    },
    {
      "station_id": "01307A5025",
      "system_id": "FXPP3185",
      "station_name": "上苇甸",
      "basin_name": "永定河流域",
      "admin_authority": "水文总站",
      "admin_division_name": "门头沟区",
      "lon": 115.987482,
      "lat": 40.028788,
      "is_fortress_anchor": false,
      "is_tongzhou_anchor": false,
      "is_cross_boundary_anchor": false
    },
    {
      "station_id": "01307A5026",
      "system_id": "FXPP3186",
      "station_name": "担礼村",
      "basin_name": "永定河流域",
      "admin_authority": "水文总站",
      "admin_division_name": "门头沟区",
      "lon": 116.052615,
      "lat": 39.987525,
      "is_fortress_anchor": false,
      "is_tongzhou_anchor": false,
      "is_cross_boundary_anchor": false
    },
    {
      "station_id": "01307A9000",
      "system_id": "FXPP3187",
      "station_name": "龙庆峡古城村",
      "basin_name": "永定河流域",
      "admin_authority": "水文总站",
      "admin_division_name": "延庆区",
      "lon": 116.021256,
      "lat": 40.546184,
      "is_fortress_anchor": false,
      "is_tongzhou_anchor": false,
      "is_cross_boundary_anchor": false
    },
    {
      "station_id": "01307A9001",
      "system_id": "FXPP3188",
      "station_name": "白河堡水库",
      "basin_name": "潮白河流域",
      "admin_authority": "水文总站",
      "admin_division_name": "延庆区",
      "lon": 116.189904,
      "lat": 40.654442,
      "is_fortress_anchor": false,
      "is_tongzhou_anchor": false,
      "is_cross_boundary_anchor": false
    },
    {
      "station_id": "01307A9002",
      "system_id": "FXPP3189",
      "station_name": "盆窑村",
      "basin_name": "永定河流域",
      "admin_authority": "水文总站",
      "admin_division_name": "延庆区",
      "lon": 116.089812,
      "lat": 40.539727,
      "is_fortress_anchor": false,
      "is_tongzhou_anchor": false,
      "is_cross_boundary_anchor": false
    },
    {
      "station_id": "01307A9003",
      "system_id": "FXPP3190",
      "station_name": "石峡村",
      "basin_name": "永定河流域",
      "admin_authority": "水文总站",
      "admin_division_name": "延庆区",
      "lon": 115.954668,
      "lat": 40.305872,
      "is_fortress_anchor": false,
      "is_tongzhou_anchor": false,
      "is_cross_boundary_anchor": false
    },
    {
      "station_id": "01307A9004",
      "system_id": "FXPP3191",
      "station_name": "石佛寺村",
      "basin_name": "北运河流域",
      "admin_authority": "水文总站",
      "admin_division_name": "延庆区",
      "lon": 116.03995,
      "lat": 40.339962,
      "is_fortress_anchor": false,
      "is_tongzhou_anchor": false,
      "is_cross_boundary_anchor": false
    },
    {
      "station_id": "01307A9005",
      "system_id": "FXPP3192",
      "station_name": "门泉石村",
      "basin_name": "北运河流域",
      "admin_authority": "水文总站",
      "admin_division_name": "延庆区",
      "lon": 116.103872,
      "lat": 40.380273,
      "is_fortress_anchor": false,
      "is_tongzhou_anchor": false,
      "is_cross_boundary_anchor": false
    },
    {
      "station_id": "01307A9006",
      "system_id": "FXPP3193",
      "station_name": "上垙村",
      "basin_name": "永定河流域",
      "admin_authority": "水文总站",
      "admin_division_name": "延庆区",
      "lon": 116.12213,
      "lat": 40.594311,
      "is_fortress_anchor": false,
      "is_tongzhou_anchor": false,
      "is_cross_boundary_anchor": false
    },
    {
      "station_id": "01307A9007",
      "system_id": "FXPP3194",
      "station_name": "上辛庄",
      "basin_name": "永定河流域",
      "admin_authority": "水文总站",
      "admin_division_name": "延庆区",
      "lon": 116.067341,
      "lat": 40.443598,
      "is_fortress_anchor": false,
      "is_tongzhou_anchor": false,
      "is_cross_boundary_anchor": false
    },
    {
      "station_id": "01307A9008",
      "system_id": "FXPP3195",
      "station_name": "马蹄湾村",
      "basin_name": "永定河流域",
      "admin_authority": "水文总站",
      "admin_division_name": "延庆区",
      "lon": 116.256357,
      "lat": 40.491154,
      "is_fortress_anchor": false,
      "is_tongzhou_anchor": false,
      "is_cross_boundary_anchor": false
    },
    {
      "station_id": "01307A9009",
      "system_id": "FXPP3196",
      "station_name": "红果寺村",
      "basin_name": "永定河流域",
      "admin_authority": "水文总站",
      "admin_division_name": "延庆区",
      "lon": 116.317801,
      "lat": 40.54842,
      "is_fortress_anchor": false,
      "is_tongzhou_anchor": false,
      "is_cross_boundary_anchor": false
    },
    {
      "station_id": "01307A9010",
      "system_id": "FXPP3197",
      "station_name": "西沟里村",
      "basin_name": "潮白河流域",
      "admin_authority": "水文总站",
      "admin_division_name": "延庆区",
      "lon": 116.355462,
      "lat": 40.522219,
      "is_fortress_anchor": false,
      "is_tongzhou_anchor": false,
      "is_cross_boundary_anchor": false
    },
    {
      "station_id": "01307A9011",
      "system_id": "FXPP3198",
      "station_name": "水泉子村",
      "basin_name": "潮白河流域",
      "admin_authority": "水文总站",
      "admin_division_name": "延庆区",
      "lon": 116.475876,
      "lat": 40.585466,
      "is_fortress_anchor": false,
      "is_tongzhou_anchor": false,
      "is_cross_boundary_anchor": false
    },
    {
      "station_id": "01307A9012",
      "system_id": "FXPP3199",
      "station_name": "石槽村",
      "basin_name": "潮白河流域",
      "admin_authority": "水文总站",
      "admin_division_name": "延庆区",
      "lon": 116.201658,
      "lat": 40.631487,
      "is_fortress_anchor": false,
      "is_tongzhou_anchor": false,
      "is_cross_boundary_anchor": false
    },
    {
      "station_id": "01307A9013",
      "system_id": "FXPP3200",
      "station_name": "水头沟村",
      "basin_name": "潮白河流域",
      "admin_authority": "水文总站",
      "admin_division_name": "延庆区",
      "lon": 116.272955,
      "lat": 40.74533,
      "is_fortress_anchor": false,
      "is_tongzhou_anchor": false,
      "is_cross_boundary_anchor": false
    },
    {
      "station_id": "01307A9014",
      "system_id": "FXPP3201",
      "station_name": "水泉沟村",
      "basin_name": "潮白河流域",
      "admin_authority": "水文总站",
      "admin_division_name": "延庆区",
      "lon": 116.375594,
      "lat": 40.746677,
      "is_fortress_anchor": false,
      "is_tongzhou_anchor": false,
      "is_cross_boundary_anchor": false
    },
    {
      "station_id": "01307A9015",
      "system_id": "FXPP3202",
      "station_name": "牤牛沟村",
      "basin_name": "潮白河流域",
      "admin_authority": "水文总站",
      "admin_division_name": "延庆区",
      "lon": 116.341839,
      "lat": 40.762868,
      "is_fortress_anchor": false,
      "is_tongzhou_anchor": false,
      "is_cross_boundary_anchor": false
    },
    {
      "station_id": "01307A9016",
      "system_id": "FXPP3203",
      "station_name": "东边村",
      "basin_name": "潮白河流域",
      "admin_authority": "水文总站",
      "admin_division_name": "延庆区",
      "lon": 116.193742,
      "lat": 40.668276,
      "is_fortress_anchor": false,
      "is_tongzhou_anchor": false,
      "is_cross_boundary_anchor": false
    },
    {
      "station_id": "01307A9017",
      "system_id": "FXPP3204",
      "station_name": "大柏老村",
      "basin_name": "永定河流域",
      "admin_authority": "水文总站",
      "admin_division_name": "延庆区",
      "lon": 116.059712,
      "lat": 40.527469,
      "is_fortress_anchor": false,
      "is_tongzhou_anchor": false,
      "is_cross_boundary_anchor": false
    },
    {
      "station_id": "01308A5131",
      "system_id": "FXPP3205",
      "station_name": "王佐",
      "basin_name": "大清河流域",
      "admin_authority": "水文总站",
      "admin_division_name": "丰台区",
      "lon": 116.10906,
      "lat": 39.799048,
      "is_fortress_anchor": false,
      "is_tongzhou_anchor": false,
      "is_cross_boundary_anchor": false
    },
    {
      "station_id": "01308A5361",
      "system_id": "FXPP3206",
      "station_name": "十渡",
      "basin_name": "大清河流域",
      "admin_authority": "水文总站",
      "admin_division_name": "房山区",
      "lon": 115.58498,
      "lat": 39.638828,
      "is_fortress_anchor": false,
      "is_tongzhou_anchor": false,
      "is_cross_boundary_anchor": false
    },
    {
      "station_id": "01308A9000",
      "system_id": "FXPP3207",
      "station_name": "大峪沟",
      "basin_name": "大清河流域",
      "admin_authority": "水文总站",
      "admin_division_name": "房山区",
      "lon": 115.736758,
      "lat": 39.604624,
      "is_fortress_anchor": false,
      "is_tongzhou_anchor": false,
      "is_cross_boundary_anchor": false
    },
    {
      "station_id": "01308A9001",
      "system_id": "FXPP3208",
      "station_name": "水头村",
      "basin_name": "大清河流域",
      "admin_authority": "水文总站",
      "admin_division_name": "房山区",
      "lon": 115.763998,
      "lat": 39.613425,
      "is_fortress_anchor": false,
      "is_tongzhou_anchor": false,
      "is_cross_boundary_anchor": false
    },
    {
      "station_id": "01308A9002",
      "system_id": "FXPP3209",
      "station_name": "马安村",
      "basin_name": "大清河流域",
      "admin_authority": "水文总站",
      "admin_division_name": "房山区",
      "lon": 115.588055,
      "lat": 39.676559,
      "is_fortress_anchor": false,
      "is_tongzhou_anchor": false,
      "is_cross_boundary_anchor": false
    },
    {
      "station_id": "01308A9003",
      "system_id": "FXPP3210",
      "station_name": "平峪村",
      "basin_name": "大清河流域",
      "admin_authority": "水文总站",
      "admin_division_name": "房山区",
      "lon": 115.551146,
      "lat": 39.649694,
      "is_fortress_anchor": false,
      "is_tongzhou_anchor": false,
      "is_cross_boundary_anchor": false
    },
    {
      "station_id": "01308A9004",
      "system_id": "FXPP3211",
      "station_name": "九渡村",
      "basin_name": "大清河流域",
      "admin_authority": "水文总站",
      "admin_division_name": "房山区",
      "lon": 115.581988,
      "lat": 39.632955,
      "is_fortress_anchor": false,
      "is_tongzhou_anchor": false,
      "is_cross_boundary_anchor": false
    },
    {
      "station_id": "01308A9005",
      "system_id": "FXPP3212",
      "station_name": "西关上村",
      "basin_name": "大清河流域",
      "admin_authority": "水文总站",
      "admin_division_name": "房山区",
      "lon": 115.641865,
      "lat": 39.634284,
      "is_fortress_anchor": false,
      "is_tongzhou_anchor": false,
      "is_cross_boundary_anchor": false
    },
    {
      "station_id": "01308A9006",
      "system_id": "FXPP3213",
      "station_name": "来利水",
      "basin_name": "大清河流域",
      "admin_authority": "水文总站",
      "admin_division_name": "房山区",
      "lon": 115.82515,
      "lat": 39.69078,
      "is_fortress_anchor": false,
      "is_tongzhou_anchor": false,
      "is_cross_boundary_anchor": false
    },
    {
      "station_id": "01308A9007",
      "system_id": "FXPP3214",
      "station_name": "拴马桩",
      "basin_name": "大清河流域",
      "admin_authority": "水文总站",
      "admin_division_name": "房山区",
      "lon": 115.880268,
      "lat": 39.65893,
      "is_fortress_anchor": false,
      "is_tongzhou_anchor": false,
      "is_cross_boundary_anchor": false
    },
    {
      "station_id": "01308A9008",
      "system_id": "FXPP3215",
      "station_name": "黄院",
      "basin_name": "大清河流域",
      "admin_authority": "水文总站",
      "admin_division_name": "房山区",
      "lon": 115.908712,
      "lat": 39.676184,
      "is_fortress_anchor": false,
      "is_tongzhou_anchor": false,
      "is_cross_boundary_anchor": false
    },
    {
      "station_id": "01308A9009",
      "system_id": "FXPP3216",
      "station_name": "周口店",
      "basin_name": "大清河流域",
      "admin_authority": "水文总站",
      "admin_division_name": "房山区",
      "lon": 115.929427,
      "lat": 39.671602,
      "is_fortress_anchor": false,
      "is_tongzhou_anchor": false,
      "is_cross_boundary_anchor": false
    },
    {
      "station_id": "01308A9010",
      "system_id": "FXPP3217",
      "station_name": "车厂村",
      "basin_name": "大清河流域",
      "admin_authority": "水文总站",
      "admin_division_name": "房山区",
      "lon": 115.911062,
      "lat": 39.73059,
      "is_fortress_anchor": false,
      "is_tongzhou_anchor": false,
      "is_cross_boundary_anchor": false
    },
    {
      "station_id": "01308A9011",
      "system_id": "FXPP3218",
      "station_name": "向阳峪",
      "basin_name": "大清河流域",
      "admin_authority": "水文总站",
      "admin_division_name": "房山区",
      "lon": 115.917262,
      "lat": 39.716134,
      "is_fortress_anchor": false,
      "is_tongzhou_anchor": false,
      "is_cross_boundary_anchor": false
    },
    {
      "station_id": "01308A9012",
      "system_id": "FXPP3219",
      "station_name": "良各庄",
      "basin_name": "大清河流域",
      "admin_authority": "水文总站",
      "admin_division_name": "房山区",
      "lon": 115.921611,
      "lat": 39.707896,
      "is_fortress_anchor": false,
      "is_tongzhou_anchor": false,
      "is_cross_boundary_anchor": false
    },
    {
      "station_id": "01308A9013",
      "system_id": "FXPP3220",
      "station_name": "堂上村",
      "basin_name": "大清河流域",
      "admin_authority": "水文总站",
      "admin_division_name": "房山区",
      "lon": 115.57798,
      "lat": 39.79021,
      "is_fortress_anchor": false,
      "is_tongzhou_anchor": false,
      "is_cross_boundary_anchor": false
    },
    {
      "station_id": "01308A9014",
      "system_id": "FXPP3221",
      "station_name": "西苑村",
      "basin_name": "大清河流域",
      "admin_authority": "水文总站",
      "admin_division_name": "房山区",
      "lon": 115.750065,
      "lat": 39.876151,
      "is_fortress_anchor": false,
      "is_tongzhou_anchor": false,
      "is_cross_boundary_anchor": false
    },
    {
      "station_id": "01308A9015",
      "system_id": "FXPP3222",
      "station_name": "中山村",
      "basin_name": "大清河流域",
      "admin_authority": "水文总站",
      "admin_division_name": "房山区",
      "lon": 115.808611,
      "lat": 39.873611,
      "is_fortress_anchor": false,
      "is_tongzhou_anchor": false,
      "is_cross_boundary_anchor": false
    },
    {
      "station_id": "01308A9016",
      "system_id": "FXPP3223",
      "station_name": "杨林水",
      "basin_name": "大清河流域",
      "admin_authority": "水文总站",
      "admin_division_name": "房山区",
      "lon": 115.68,
      "lat": 39.809444,
      "is_fortress_anchor": false,
      "is_tongzhou_anchor": false,
      "is_cross_boundary_anchor": false
    },
    {
      "station_id": "01308A9017",
      "system_id": "FXPP3224",
      "station_name": "鸳鸯水",
      "basin_name": "大清河流域",
      "admin_authority": "水文总站",
      "admin_division_name": "房山区",
      "lon": 115.750788,
      "lat": 39.825676,
      "is_fortress_anchor": false,
      "is_tongzhou_anchor": false,
      "is_cross_boundary_anchor": false
    },
    {
      "station_id": "01308A9018",
      "system_id": "FXPP3225",
      "station_name": "史家营",
      "basin_name": "大清河流域",
      "admin_authority": "水文总站",
      "admin_division_name": "房山区",
      "lon": 115.660556,
      "lat": 39.851667,
      "is_fortress_anchor": false,
      "is_tongzhou_anchor": false,
      "is_cross_boundary_anchor": false
    },
    {
      "station_id": "01308A9019",
      "system_id": "FXPP3226",
      "station_name": "西班各庄",
      "basin_name": "大清河流域",
      "admin_authority": "水文总站",
      "admin_division_name": "房山区",
      "lon": 115.892833,
      "lat": 39.821,
      "is_fortress_anchor": false,
      "is_tongzhou_anchor": false,
      "is_cross_boundary_anchor": false
    },
    {
      "station_id": "01308A9020",
      "system_id": "FXPP3227",
      "station_name": "大西沟",
      "basin_name": "大清河流域",
      "admin_authority": "水文总站",
      "admin_division_name": "房山区",
      "lon": 115.818917,
      "lat": 39.78478,
      "is_fortress_anchor": false,
      "is_tongzhou_anchor": false,
      "is_cross_boundary_anchor": false
    },
    {
      "station_id": "01308A9021",
      "system_id": "FXPP3228",
      "station_name": "三合村",
      "basin_name": "大清河流域",
      "admin_authority": "水文总站",
      "admin_division_name": "房山区",
      "lon": 115.85177,
      "lat": 39.759633,
      "is_fortress_anchor": false,
      "is_tongzhou_anchor": false,
      "is_cross_boundary_anchor": false
    },
    {
      "station_id": "01308A9022",
      "system_id": "FXPP3229",
      "station_name": "中窖村",
      "basin_name": "大清河流域",
      "admin_authority": "水文总站",
      "admin_division_name": "房山区",
      "lon": 115.84,
      "lat": 39.775517,
      "is_fortress_anchor": false,
      "is_tongzhou_anchor": false,
      "is_cross_boundary_anchor": false
    },
    {
      "station_id": "01308A9023",
      "system_id": "FXPP3230",
      "station_name": "口儿村",
      "basin_name": "大清河流域",
      "admin_authority": "水文总站",
      "admin_division_name": "房山区",
      "lon": 115.915333,
      "lat": 39.786967,
      "is_fortress_anchor": false,
      "is_tongzhou_anchor": false,
      "is_cross_boundary_anchor": false
    },
    {
      "station_id": "01308A9024",
      "system_id": "FXPP3231",
      "station_name": "李各庄",
      "basin_name": "大清河流域",
      "admin_authority": "水文总站",
      "admin_division_name": "房山区",
      "lon": 115.942267,
      "lat": 39.82295,
      "is_fortress_anchor": false,
      "is_tongzhou_anchor": false,
      "is_cross_boundary_anchor": false
    },
    {
      "station_id": "01308A9025",
      "system_id": "FXPP3232",
      "station_name": "磁家务",
      "basin_name": "大清河流域",
      "admin_authority": "水文总站",
      "admin_division_name": "房山区",
      "lon": 115.982017,
      "lat": 39.793783,
      "is_fortress_anchor": false,
      "is_tongzhou_anchor": false,
      "is_cross_boundary_anchor": false
    },
    {
      "station_id": "01308A9026",
      "system_id": "FXPP3233",
      "station_name": "下河村",
      "basin_name": "大清河流域",
      "admin_authority": "水文总站",
      "admin_division_name": "房山区",
      "lon": 115.73673,
      "lat": 39.73288,
      "is_fortress_anchor": false,
      "is_tongzhou_anchor": false,
      "is_cross_boundary_anchor": false
    },
    {
      "station_id": "01308A9027",
      "system_id": "FXPP3234",
      "station_name": "中石堡",
      "basin_name": "大清河流域",
      "admin_authority": "水文总站",
      "admin_division_name": "房山区",
      "lon": 115.75826,
      "lat": 39.76862,
      "is_fortress_anchor": false,
      "is_tongzhou_anchor": false,
      "is_cross_boundary_anchor": false
    },
    {
      "station_id": "01308A9028",
      "system_id": "FXPP3235",
      "station_name": "长流水",
      "basin_name": "大清河流域",
      "admin_authority": "水文总站",
      "admin_division_name": "房山区",
      "lon": 115.72203,
      "lat": 39.71161,
      "is_fortress_anchor": false,
      "is_tongzhou_anchor": false,
      "is_cross_boundary_anchor": false
    },
    {
      "station_id": "01308A9029",
      "system_id": "FXPP3236",
      "station_name": "刘家村",
      "basin_name": "大清河流域",
      "admin_authority": "水文总站",
      "admin_division_name": "房山区",
      "lon": 115.781667,
      "lat": 39.900183,
      "is_fortress_anchor": false,
      "is_tongzhou_anchor": false,
      "is_cross_boundary_anchor": false
    },
    {
      "station_id": "01308A9030",
      "system_id": "FXPP3237",
      "station_name": "北车营",
      "basin_name": "大清河流域",
      "admin_authority": "水文总站",
      "admin_division_name": "房山区",
      "lon": 116.02787,
      "lat": 39.81201,
      "is_fortress_anchor": false,
      "is_tongzhou_anchor": false,
      "is_cross_boundary_anchor": false
    },
    {
      "station_id": "01308A9031",
      "system_id": "FXPP3238",
      "station_name": "云居寺",
      "basin_name": "大清河流域",
      "admin_authority": "水文总站",
      "admin_division_name": "房山区",
      "lon": 115.769365,
      "lat": 39.584347,
      "is_fortress_anchor": false,
      "is_tongzhou_anchor": false,
      "is_cross_boundary_anchor": false
    },
    {
      "station_id": "01900200",
      "system_id": "FXPP6361",
      "station_name": "大青沟水库（坝上",
      "basin_name": "河北北部内陆河",
      "admin_authority": "河北水文",
      "admin_division_name": "冀-尚义县",
      "lon": 114.071667,
      "lat": 41.3625,
      "is_fortress_anchor": false,
      "is_tongzhou_anchor": false,
      "is_cross_boundary_anchor": false
    },
    {
      "station_id": "01900501",
      "system_id": "FXPP6362",
      "station_name": "张北",
      "basin_name": "河北北部内陆河",
      "admin_authority": "河北水文",
      "admin_division_name": "",
      "lon": 114.6875,
      "lat": 41.169444,
      "is_fortress_anchor": false,
      "is_tongzhou_anchor": false,
      "is_cross_boundary_anchor": false
    },
    {
      "station_id": "01900700",
      "system_id": "FXPP6363",
      "station_name": "黄盖淖水库",
      "basin_name": "河北北部内陆河",
      "admin_authority": "河北水文",
      "admin_division_name": "",
      "lon": 114.705389,
      "lat": 41.355583,
      "is_fortress_anchor": false,
      "is_tongzhou_anchor": false,
      "is_cross_boundary_anchor": false
    },
    {
      "station_id": "01901000",
      "system_id": "FXPP6364",
      "station_name": "小厂",
      "basin_name": "河北北部内陆河",
      "admin_authority": "河北水文",
      "admin_division_name": "冀-沽源县",
      "lon": 115.788083,
      "lat": 41.426861,
      "is_fortress_anchor": false,
      "is_tongzhou_anchor": false,
      "is_cross_boundary_anchor": false
    },
    {
      "station_id": "01920100",
      "system_id": "FXPP6365",
      "station_name": "前照阳河",
      "basin_name": "河北北部内陆河",
      "admin_authority": "河北水文",
      "admin_division_name": "",
      "lon": 114.568667,
      "lat": 42.070333,
      "is_fortress_anchor": false,
      "is_tongzhou_anchor": false,
      "is_cross_boundary_anchor": false
    },
    {
      "station_id": "01920200",
      "system_id": "FXPP6366",
      "station_name": "满德堂",
      "basin_name": "河北北部内陆河",
      "admin_authority": "河北水文",
      "admin_division_name": "",
      "lon": 114.500611,
      "lat": 41.936806,
      "is_fortress_anchor": false,
      "is_tongzhou_anchor": false,
      "is_cross_boundary_anchor": false
    },
    {
      "station_id": "01920300",
      "system_id": "FXPP6367",
      "station_name": "屯垦",
      "basin_name": "河北北部内陆河",
      "admin_authority": "河北水文",
      "admin_division_name": "",
      "lon": 114.750222,
      "lat": 41.929556,
      "is_fortress_anchor": false,
      "is_tongzhou_anchor": false,
      "is_cross_boundary_anchor": false
    },
    {
      "station_id": "01920400",
      "system_id": "FXPP6368",
      "station_name": "康保",
      "basin_name": "河北北部内陆河",
      "admin_authority": "河北水文",
      "admin_division_name": "",
      "lon": 114.616667,
      "lat": 41.85,
      "is_fortress_anchor": false,
      "is_tongzhou_anchor": false,
      "is_cross_boundary_anchor": false
    },
    {
      "station_id": "01920500",
      "system_id": "FXPP6369",
      "station_name": "阎油坊",
      "basin_name": "河北北部内陆河",
      "admin_authority": "河北水文",
      "admin_division_name": "",
      "lon": 114.812611,
      "lat": 41.754444,
      "is_fortress_anchor": false,
      "is_tongzhou_anchor": false,
      "is_cross_boundary_anchor": false
    },
    {
      "station_id": "01920600",
      "system_id": "FXPP6370",
      "station_name": "大囫囵",
      "basin_name": "河北北部内陆河",
      "admin_authority": "河北水文",
      "admin_division_name": "",
      "lon": 114.481861,
      "lat": 41.755,
      "is_fortress_anchor": false,
      "is_tongzhou_anchor": false,
      "is_cross_boundary_anchor": false
    },
    {
      "station_id": "01920700",
      "system_id": "FXPP6371",
      "station_name": "芦家营",
      "basin_name": "河北北部内陆河",
      "admin_authority": "河北水文",
      "admin_division_name": "",
      "lon": 114.33525,
      "lat": 41.811556,
      "is_fortress_anchor": false,
      "is_tongzhou_anchor": false,
      "is_cross_boundary_anchor": false
    },
    {
      "station_id": "01920800",
      "system_id": "FXPP6372",
      "station_name": "李家地",
      "basin_name": "河北北部内陆河",
      "admin_authority": "河北水文",
      "admin_division_name": "",
      "lon": 114.312417,
      "lat": 41.708028,
      "is_fortress_anchor": false,
      "is_tongzhou_anchor": false,
      "is_cross_boundary_anchor": false
    },
    {
      "station_id": "01920900",
      "system_id": "FXPP6373",
      "station_name": "丹清河",
      "basin_name": "河北北部内陆河",
      "admin_authority": "河北水文",
      "admin_division_name": "",
      "lon": 114.578389,
      "lat": 41.656667,
      "is_fortress_anchor": false,
      "is_tongzhou_anchor": false,
      "is_cross_boundary_anchor": false
    },
    {
      "station_id": "01921000",
      "system_id": "FXPP6374",
      "station_name": "万隆店",
      "basin_name": "河北北部内陆河",
      "admin_authority": "河北水文",
      "admin_division_name": "",
      "lon": 114.874222,
      "lat": 41.659944,
      "is_fortress_anchor": false,
      "is_tongzhou_anchor": false,
      "is_cross_boundary_anchor": false
    },
    {
      "station_id": "01921050",
      "system_id": "FXPP6375",
      "station_name": "哈咇嘎",
      "basin_name": "河北北部内陆河",
      "admin_authority": "河北水文",
      "admin_division_name": "",
      "lon": 114.780222,
      "lat": 41.556583,
      "is_fortress_anchor": false,
      "is_tongzhou_anchor": false,
      "is_cross_boundary_anchor": false
    },
    {
      "station_id": "01921100",
      "system_id": "FXPP6376",
      "station_name": "脑包底",
      "basin_name": "河北北部内陆河",
      "admin_authority": "河北水文",
      "admin_division_name": "",
      "lon": 114.985744,
      "lat": 41.471472,
      "is_fortress_anchor": false,
      "is_tongzhou_anchor": false,
      "is_cross_boundary_anchor": false
    },
    {
      "station_id": "01921200",
      "system_id": "FXPP6377",
      "station_name": "土城子",
      "basin_name": "河北北部内陆河",
      "admin_authority": "河北水文",
      "admin_division_name": "",
      "lon": 114.619333,
      "lat": 41.495639,
      "is_fortress_anchor": false,
      "is_tongzhou_anchor": false,
      "is_cross_boundary_anchor": false
    },
    {
      "station_id": "01921300",
      "system_id": "FXPP6378",
      "station_name": "邓油房",
      "basin_name": "河北北部内陆河",
      "admin_authority": "河北水文",
      "admin_division_name": "",
      "lon": 114.396611,
      "lat": 41.571806,
      "is_fortress_anchor": false,
      "is_tongzhou_anchor": false,
      "is_cross_boundary_anchor": false
    },
    {
      "station_id": "01921400",
      "system_id": "FXPP6379",
      "station_name": "大苏计",
      "basin_name": "河北北部内陆河",
      "admin_authority": "河北水文",
      "admin_division_name": "冀-尚义县",
      "lon": 114.160583,
      "lat": 41.473389,
      "is_fortress_anchor": false,
      "is_tongzhou_anchor": false,
      "is_cross_boundary_anchor": false
    },
    {
      "station_id": "01921500",
      "system_id": "FXPP6380",
      "station_name": "炕塄",
      "basin_name": "河北北部内陆河",
      "admin_authority": "河北水文",
      "admin_division_name": "冀-尚义县",
      "lon": 114.261667,
      "lat": 41.15225,
      "is_fortress_anchor": false,
      "is_tongzhou_anchor": false,
      "is_cross_boundary_anchor": false
    },
    {
      "station_id": "01921600",
      "system_id": "FXPP6381",
      "station_name": "蔡家村",
      "basin_name": "河北北部内陆河",
      "admin_authority": "河北水文",
      "admin_division_name": "冀-尚义县",
      "lon": 114.256778,
      "lat": 41.329472,
      "is_fortress_anchor": false,
      "is_tongzhou_anchor": false,
      "is_cross_boundary_anchor": false
    },
    {
      "station_id": "01921900",
      "system_id": "FXPP6382",
      "station_name": "哈拉沟",
      "basin_name": "河北北部内陆河",
      "admin_authority": "河北水文",
      "admin_division_name": "冀-尚义县",
      "lon": 113.985361,
      "lat": 41.271472,
      "is_fortress_anchor": false,
      "is_tongzhou_anchor": false,
      "is_cross_boundary_anchor": false
    },
    {
      "station_id": "01922000",
      "system_id": "FXPP6383",
      "station_name": "大河",
      "basin_name": "河北北部内陆河",
      "admin_authority": "河北水文",
      "admin_division_name": "",
      "lon": 114.406611,
      "lat": 41.071278,
      "is_fortress_anchor": false,
      "is_tongzhou_anchor": false,
      "is_cross_boundary_anchor": false
    },
    {
      "station_id": "01922100",
      "system_id": "FXPP6384",
      "station_name": "单晶河",
      "basin_name": "河北北部内陆河",
      "admin_authority": "河北水文",
      "admin_division_name": "",
      "lon": 114.38,
      "lat": 41.186611,
      "is_fortress_anchor": false,
      "is_tongzhou_anchor": false,
      "is_cross_boundary_anchor": false
    },
    {
      "station_id": "01922200",
      "system_id": "FXPP6385",
      "station_name": "海流图",
      "basin_name": "河北北部内陆河",
      "admin_authority": "河北水文",
      "admin_division_name": "",
      "lon": 114.457111,
      "lat": 41.240833,
      "is_fortress_anchor": false,
      "is_tongzhou_anchor": false,
      "is_cross_boundary_anchor": false
    },
    {
      "station_id": "01922300",
      "system_id": "FXPP6386",
      "station_name": "公会",
      "basin_name": "河北北部内陆河",
      "admin_authority": "河北水文",
      "admin_division_name": "",
      "lon": 114.52175,
      "lat": 41.336917,
      "is_fortress_anchor": false,
      "is_tongzhou_anchor": false,
      "is_cross_boundary_anchor": false
    },
    {
      "station_id": "01922400",
      "system_id": "FXPP6387",
      "station_name": "黄石崖",
      "basin_name": "河北北部内陆河",
      "admin_authority": "河北水文",
      "admin_division_name": "",
      "lon": 114.360083,
      "lat": 41.386167,
      "is_fortress_anchor": false,
      "is_tongzhou_anchor": false,
      "is_cross_boundary_anchor": false
    },
    {
      "station_id": "01922500",
      "system_id": "FXPP6388",
      "station_name": "春垦",
      "basin_name": "河北北部内陆河",
      "admin_authority": "河北水文",
      "admin_division_name": "",
      "lon": 114.578389,
      "lat": 41.006,
      "is_fortress_anchor": false,
      "is_tongzhou_anchor": false,
      "is_cross_boundary_anchor": false
    },
    {
      "station_id": "01922600",
      "system_id": "FXPP6389",
      "station_name": "台路沟",
      "basin_name": "河北北部内陆河",
      "admin_authority": "河北水文",
      "admin_division_name": "",
      "lon": 114.558,
      "lat": 41.037139,
      "is_fortress_anchor": false,
      "is_tongzhou_anchor": false,
      "is_cross_boundary_anchor": false
    },
    {
      "station_id": "01922700",
      "system_id": "FXPP6390",
      "station_name": "大圪垯",
      "basin_name": "河北北部内陆河",
      "admin_authority": "河北水文",
      "admin_division_name": "",
      "lon": 114.579667,
      "lat": 41.081611,
      "is_fortress_anchor": false,
      "is_tongzhou_anchor": false,
      "is_cross_boundary_anchor": false
    },
    {
      "station_id": "01922800",
      "system_id": "FXPP6391",
      "station_name": "大羊盘",
      "basin_name": "河北北部内陆河",
      "admin_authority": "河北水文",
      "admin_division_name": "",
      "lon": 114.484417,
      "lat": 41.051083,
      "is_fortress_anchor": false,
      "is_tongzhou_anchor": false,
      "is_cross_boundary_anchor": false
    },
    {
      "station_id": "01922900",
      "system_id": "FXPP6392",
      "station_name": "羊囫囵",
      "basin_name": "河北北部内陆河",
      "admin_authority": "河北水文",
      "admin_division_name": "",
      "lon": 114.651528,
      "lat": 41.075722,
      "is_fortress_anchor": false,
      "is_tongzhou_anchor": false,
      "is_cross_boundary_anchor": false
    },
    {
      "station_id": "01923000",
      "system_id": "FXPP6393",
      "station_name": "烈士塔",
      "basin_name": "河北北部内陆河",
      "admin_authority": "河北水文",
      "admin_division_name": "",
      "lon": 114.727889,
      "lat": 41.025806,
      "is_fortress_anchor": false,
      "is_tongzhou_anchor": false,
      "is_cross_boundary_anchor": false
    },
    {
      "station_id": "01923200",
      "system_id": "FXPP6394",
      "station_name": "阳坡",
      "basin_name": "河北北部内陆河",
      "admin_authority": "河北水文",
      "admin_division_name": "",
      "lon": 114.837833,
      "lat": 41.044611,
      "is_fortress_anchor": false,
      "is_tongzhou_anchor": false,
      "is_cross_boundary_anchor": false
    },
    {
      "station_id": "01923300",
      "system_id": "FXPP6395",
      "station_name": "韭菜沟",
      "basin_name": "河北北部内陆河",
      "admin_authority": "河北水文",
      "admin_division_name": "",
      "lon": 114.915361,
      "lat": 41.069694,
      "is_fortress_anchor": false,
      "is_tongzhou_anchor": false,
      "is_cross_boundary_anchor": false
    },
    {
      "station_id": "01923400",
      "system_id": "FXPP6396",
      "station_name": "下红果图",
      "basin_name": "河北北部内陆河",
      "admin_authority": "河北水文",
      "admin_division_name": "",
      "lon": 114.948,
      "lat": 41.152111,
      "is_fortress_anchor": false,
      "is_tongzhou_anchor": false,
      "is_cross_boundary_anchor": false
    },
    {
      "station_id": "01923450",
      "system_id": "FXPP6397",
      "station_name": "兴隆",
      "basin_name": "河北北部内陆河",
      "admin_authority": "河北水文",
      "admin_division_name": "",
      "lon": 114.807389,
      "lat": 41.173389,
      "is_fortress_anchor": false,
      "is_tongzhou_anchor": false,
      "is_cross_boundary_anchor": false
    },
    {
      "station_id": "01923500",
      "system_id": "FXPP6398",
      "station_name": "小二台",
      "basin_name": "河北北部内陆河",
      "admin_authority": "河北水文",
      "admin_division_name": "",
      "lon": 114.860472,
      "lat": 41.181,
      "is_fortress_anchor": false,
      "is_tongzhou_anchor": false,
      "is_cross_boundary_anchor": false
    },
    {
      "station_id": "01923550",
      "system_id": "FXPP6399",
      "station_name": "东营盘",
      "basin_name": "河北北部内陆河",
      "admin_authority": "河北水文",
      "admin_division_name": "",
      "lon": 114.756861,
      "lat": 41.112056,
      "is_fortress_anchor": false,
      "is_tongzhou_anchor": false,
      "is_cross_boundary_anchor": false
    },
    {
      "station_id": "01923600",
      "system_id": "FXPP6400",
      "station_name": "馒头营",
      "basin_name": "河北北部内陆河",
      "admin_authority": "河北水文",
      "admin_division_name": "",
      "lon": 114.651333,
      "lat": 41.260528,
      "is_fortress_anchor": false,
      "is_tongzhou_anchor": false,
      "is_cross_boundary_anchor": false
    },
    {
      "station_id": "01923700",
      "system_id": "FXPP6401",
      "station_name": "黄盖淖水库",
      "basin_name": "河北北部内陆河",
      "admin_authority": "河北水文",
      "admin_division_name": "",
      "lon": 114.700472,
      "lat": 41.357722,
      "is_fortress_anchor": false,
      "is_tongzhou_anchor": false,
      "is_cross_boundary_anchor": false
    },
    {
      "station_id": "01923800",
      "system_id": "FXPP6402",
      "station_name": "五贵房",
      "basin_name": "河北北部内陆河",
      "admin_authority": "河北水文",
      "admin_division_name": "",
      "lon": 114.874333,
      "lat": 41.284944,
      "is_fortress_anchor": false,
      "is_tongzhou_anchor": false,
      "is_cross_boundary_anchor": false
    },
    {
      "station_id": "01923900",
      "system_id": "FXPP6403",
      "station_name": "大囫囵",
      "basin_name": "河北北部内陆河",
      "admin_authority": "河北水文",
      "admin_division_name": "",
      "lon": 115.097861,
      "lat": 41.355944,
      "is_fortress_anchor": false,
      "is_tongzhou_anchor": false,
      "is_cross_boundary_anchor": false
    },
    {
      "station_id": "01924000",
      "system_id": "FXPP6404",
      "station_name": "板申图",
      "basin_name": "河北北部内陆河",
      "admin_authority": "河北水文",
      "admin_division_name": "",
      "lon": 115.035917,
      "lat": 41.32625,
      "is_fortress_anchor": false,
      "is_tongzhou_anchor": false,
      "is_cross_boundary_anchor": false
    },
    {
      "station_id": "01924100",
      "system_id": "FXPP6405",
      "station_name": "白塔",
      "basin_name": "河北北部内陆河",
      "admin_authority": "河北水文",
      "admin_division_name": "",
      "lon": 114.730972,
      "lat": 41.449472,
      "is_fortress_anchor": false,
      "is_tongzhou_anchor": false,
      "is_cross_boundary_anchor": false
    },
    {
      "station_id": "01924150",
      "system_id": "FXPP6406",
      "station_name": "大苟营",
      "basin_name": "河北北部内陆河",
      "admin_authority": "河北水文",
      "admin_division_name": "冀-沽源县",
      "lon": 115.192889,
      "lat": 41.548056,
      "is_fortress_anchor": false,
      "is_tongzhou_anchor": false,
      "is_cross_boundary_anchor": false
    },
    {
      "station_id": "01924200",
      "system_id": "FXPP6407",
      "station_name": "三号地",
      "basin_name": "河北北部内陆河",
      "admin_authority": "河北水文",
      "admin_division_name": "冀-沽源县",
      "lon": 114.987806,
      "lat": 41.56025,
      "is_fortress_anchor": false,
      "is_tongzhou_anchor": false,
      "is_cross_boundary_anchor": false
    },
    {
      "station_id": "01924300",
      "system_id": "FXPP6408",
      "station_name": "大石头沟",
      "basin_name": "河北北部内陆河",
      "admin_authority": "河北水文",
      "admin_division_name": "",
      "lon": 115.436472,
      "lat": 41.30675,
      "is_fortress_anchor": false,
      "is_tongzhou_anchor": false,
      "is_cross_boundary_anchor": false
    },
    {
      "station_id": "01924400",
      "system_id": "FXPP6409",
      "station_name": "七一水库",
      "basin_name": "河北北部内陆河",
      "admin_authority": "河北水文",
      "admin_division_name": "冀-沽源县",
      "lon": 115.341111,
      "lat": 41.438833,
      "is_fortress_anchor": false,
      "is_tongzhou_anchor": false,
      "is_cross_boundary_anchor": false
    },
    {
      "station_id": "01924500",
      "system_id": "FXPP6410",
      "station_name": "三间房",
      "basin_name": "河北北部内陆河",
      "admin_authority": "河北水文",
      "admin_division_name": "冀-沽源县",
      "lon": 115.486694,
      "lat": 41.375611,
      "is_fortress_anchor": false,
      "is_tongzhou_anchor": false,
      "is_cross_boundary_anchor": false
    },
    {
      "station_id": "01924600",
      "system_id": "FXPP6411",
      "station_name": "庙子沟",
      "basin_name": "河北北部内陆河",
      "admin_authority": "河北水文",
      "admin_division_name": "冀-沽源县",
      "lon": 115.912389,
      "lat": 41.301028,
      "is_fortress_anchor": false,
      "is_tongzhou_anchor": false,
      "is_cross_boundary_anchor": false
    },
    {
      "station_id": "01924650",
      "system_id": "FXPP6412",
      "station_name": "小河子",
      "basin_name": "河北北部内陆河",
      "admin_authority": "河北水文",
      "admin_division_name": "冀-沽源县",
      "lon": 115.645306,
      "lat": 41.569278,
      "is_fortress_anchor": false,
      "is_tongzhou_anchor": false,
      "is_cross_boundary_anchor": false
    },
    {
      "station_id": "01924700",
      "system_id": "FXPP6413",
      "station_name": "小厂",
      "basin_name": "河北北部内陆河",
      "admin_authority": "河北水文",
      "admin_division_name": "冀-沽源县",
      "lon": 115.792306,
      "lat": 41.428139,
      "is_fortress_anchor": false,
      "is_tongzhou_anchor": false,
      "is_cross_boundary_anchor": false
    },
    {
      "station_id": "01924800",
      "system_id": "FXPP6414",
      "station_name": "石头城水库",
      "basin_name": "河北北部内陆河",
      "admin_authority": "河北水文",
      "admin_division_name": "冀-沽源县",
      "lon": 115.757583,
      "lat": 41.512333,
      "is_fortress_anchor": false,
      "is_tongzhou_anchor": false,
      "is_cross_boundary_anchor": false
    },
    {
      "station_id": "01924900",
      "system_id": "FXPP6415",
      "station_name": "大恒店",
      "basin_name": "河北北部内陆河",
      "admin_authority": "河北水文",
      "admin_division_name": "冀-沽源县",
      "lon": 115.476222,
      "lat": 41.658583,
      "is_fortress_anchor": false,
      "is_tongzhou_anchor": false,
      "is_cross_boundary_anchor": false
    },
    {
      "station_id": "01924950",
      "system_id": "FXPP6416",
      "station_name": "东房子",
      "basin_name": "河北北部内陆河",
      "admin_authority": "河北水文",
      "admin_division_name": "冀-沽源县",
      "lon": 115.524333,
      "lat": 41.397111,
      "is_fortress_anchor": false,
      "is_tongzhou_anchor": false,
      "is_cross_boundary_anchor": false
    },
    {
      "station_id": "01925000",
      "system_id": "FXPP6417",
      "station_name": "五甲地",
      "basin_name": "河北北部内陆河",
      "admin_authority": "河北水文",
      "admin_division_name": "冀-沽源县",
      "lon": 115.507611,
      "lat": 41.502889,
      "is_fortress_anchor": false,
      "is_tongzhou_anchor": false,
      "is_cross_boundary_anchor": false
    },
    {
      "station_id": "01925050",
      "system_id": "FXPP6418",
      "station_name": "河东",
      "basin_name": "河北北部内陆河",
      "admin_authority": "河北水文",
      "admin_division_name": "冀-沽源县",
      "lon": 115.690611,
      "lat": 41.637889,
      "is_fortress_anchor": false,
      "is_tongzhou_anchor": false,
      "is_cross_boundary_anchor": false
    },
    {
      "station_id": "01925100",
      "system_id": "FXPP6419",
      "station_name": "沽源",
      "basin_name": "河北北部内陆河",
      "admin_authority": "河北水文",
      "admin_division_name": "冀-沽源县",
      "lon": 115.700278,
      "lat": 41.667222,
      "is_fortress_anchor": false,
      "is_tongzhou_anchor": false,
      "is_cross_boundary_anchor": false
    },
    {
      "station_id": "01951502",
      "system_id": "FXPP6420",
      "station_name": "海流图水库",
      "basin_name": "河北北部内陆河",
      "admin_authority": "河北水文",
      "admin_division_name": "",
      "lon": 114.454083,
      "lat": 41.235,
      "is_fortress_anchor": false,
      "is_tongzhou_anchor": false,
      "is_cross_boundary_anchor": false
    },
    {
      "station_id": "01951504",
      "system_id": "FXPP6421",
      "station_name": "单晶河水库",
      "basin_name": "河北北部内陆河",
      "admin_authority": "河北水文",
      "admin_division_name": "",
      "lon": 114.38,
      "lat": 41.17,
      "is_fortress_anchor": false,
      "is_tongzhou_anchor": false,
      "is_cross_boundary_anchor": false
    },
    {
      "station_id": "01951506",
      "system_id": "FXPP6422",
      "station_name": "马家村水库",
      "basin_name": "河北北部内陆河",
      "admin_authority": "河北水文",
      "admin_division_name": "",
      "lon": 114.43,
      "lat": 41.18,
      "is_fortress_anchor": false,
      "is_tongzhou_anchor": false,
      "is_cross_boundary_anchor": false
    },
    {
      "station_id": "01951514",
      "system_id": "FXPP6423",
      "station_name": "大营滩水库",
      "basin_name": "河北北部内陆河",
      "admin_authority": "河北水文",
      "admin_division_name": "",
      "lon": 114.598056,
      "lat": 41.085278,
      "is_fortress_anchor": false,
      "is_tongzhou_anchor": false,
      "is_cross_boundary_anchor": false
    },
    {
      "station_id": "01951516",
      "system_id": "FXPP6424",
      "station_name": "小二台水库",
      "basin_name": "河北北部内陆河",
      "admin_authority": "河北水文",
      "admin_division_name": "",
      "lon": 114.88,
      "lat": 41.17,
      "is_fortress_anchor": false,
      "is_tongzhou_anchor": false,
      "is_cross_boundary_anchor": false
    },
    {
      "station_id": "01951520",
      "system_id": "FXPP6425",
      "station_name": "万宝庄",
      "basin_name": "河北北部内陆河",
      "admin_authority": "河北水文",
      "admin_division_name": "",
      "lon": 115.230736,
      "lat": 41.261029,
      "is_fortress_anchor": false,
      "is_tongzhou_anchor": false,
      "is_cross_boundary_anchor": false
    },
    {
      "station_id": "01951532",
      "system_id": "FXPP6426",
      "station_name": "席麻沟",
      "basin_name": "河北北部内陆河",
      "admin_authority": "河北水文",
      "admin_division_name": "",
      "lon": 115.146391,
      "lat": 41.316002,
      "is_fortress_anchor": false,
      "is_tongzhou_anchor": false,
      "is_cross_boundary_anchor": false
    },
    {
      "station_id": "01951534",
      "system_id": "FXPP6427",
      "station_name": "二道湾",
      "basin_name": "河北北部内陆河",
      "admin_authority": "河北水文",
      "admin_division_name": "",
      "lon": 115.281886,
      "lat": 41.266347,
      "is_fortress_anchor": false,
      "is_tongzhou_anchor": false,
      "is_cross_boundary_anchor": false
    },
    {
      "station_id": "01951536",
      "system_id": "FXPP6428",
      "station_name": "三塔户",
      "basin_name": "河北北部内陆河",
      "admin_authority": "河北水文",
      "admin_division_name": "",
      "lon": 115.100992,
      "lat": 41.265302,
      "is_fortress_anchor": false,
      "is_tongzhou_anchor": false,
      "is_cross_boundary_anchor": false
    },
    {
      "station_id": "01951538",
      "system_id": "FXPP6429",
      "station_name": "冯家营",
      "basin_name": "河北北部内陆河",
      "admin_authority": "河北水文",
      "admin_division_name": "",
      "lon": 115.086091,
      "lat": 41.327574,
      "is_fortress_anchor": false,
      "is_tongzhou_anchor": false,
      "is_cross_boundary_anchor": false
    },
    {
      "station_id": "01951542",
      "system_id": "FXPP6430",
      "station_name": "徐家营",
      "basin_name": "河北北部内陆河",
      "admin_authority": "河北水文",
      "admin_division_name": "",
      "lon": 115.066454,
      "lat": 41.351024,
      "is_fortress_anchor": false,
      "is_tongzhou_anchor": false,
      "is_cross_boundary_anchor": false
    },
    {
      "station_id": "01951544",
      "system_id": "FXPP6431",
      "station_name": "河心",
      "basin_name": "河北北部内陆河",
      "admin_authority": "河北水文",
      "admin_division_name": "",
      "lon": 115.254052,
      "lat": 41.295955,
      "is_fortress_anchor": false,
      "is_tongzhou_anchor": false,
      "is_cross_boundary_anchor": false
    },
    {
      "station_id": "01951550",
      "system_id": "FXPP6432",
      "station_name": "红沙滩",
      "basin_name": "河北北部内陆河",
      "admin_authority": "河北水文",
      "admin_division_name": "",
      "lon": 115.160985,
      "lat": 41.349308,
      "is_fortress_anchor": false,
      "is_tongzhou_anchor": false,
      "is_cross_boundary_anchor": false
    },
    {
      "station_id": "01951552",
      "system_id": "FXPP6433",
      "station_name": "黑石头山",
      "basin_name": "河北北部内陆河",
      "admin_authority": "河北水文",
      "admin_division_name": "",
      "lon": 115.197992,
      "lat": 41.375035,
      "is_fortress_anchor": false,
      "is_tongzhou_anchor": false,
      "is_cross_boundary_anchor": false
    },
    {
      "station_id": "01951554",
      "system_id": "FXPP6434",
      "station_name": "郝家营",
      "basin_name": "河北北部内陆河",
      "admin_authority": "河北水文",
      "admin_division_name": "",
      "lon": 115.144756,
      "lat": 41.381727,
      "is_fortress_anchor": false,
      "is_tongzhou_anchor": false,
      "is_cross_boundary_anchor": false
    },
    {
      "station_id": "01951555",
      "system_id": "FXPP6435",
      "station_name": "洞铁营",
      "basin_name": "河北北部内陆河",
      "admin_authority": "河北水文",
      "admin_division_name": "",
      "lon": 115.156001,
      "lat": 41.401936,
      "is_fortress_anchor": false,
      "is_tongzhou_anchor": false,
      "is_cross_boundary_anchor": false
    },
    {
      "station_id": "01951556",
      "system_id": "FXPP6436",
      "station_name": "土茂营",
      "basin_name": "河北北部内陆河",
      "admin_authority": "河北水文",
      "admin_division_name": "",
      "lon": 115.097188,
      "lat": 41.355813,
      "is_fortress_anchor": false,
      "is_tongzhou_anchor": false,
      "is_cross_boundary_anchor": false
    },
    {
      "station_id": "01951557",
      "system_id": "FXPP6437",
      "station_name": "水泉沟",
      "basin_name": "河北北部内陆河",
      "admin_authority": "河北水文",
      "admin_division_name": "",
      "lon": 115.248717,
      "lat": 41.354613,
      "is_fortress_anchor": false,
      "is_tongzhou_anchor": false,
      "is_cross_boundary_anchor": false
    },
    {
      "station_id": "01951558",
      "system_id": "FXPP6438",
      "station_name": "水泉洼",
      "basin_name": "河北北部内陆河",
      "admin_authority": "河北水文",
      "admin_division_name": "",
      "lon": 115.409972,
      "lat": 41.272862,
      "is_fortress_anchor": false,
      "is_tongzhou_anchor": false,
      "is_cross_boundary_anchor": false
    },
    {
      "station_id": "01951562",
      "system_id": "FXPP6439",
      "station_name": "鱼儿湾",
      "basin_name": "河北北部内陆河",
      "admin_authority": "河北水文",
      "admin_division_name": "",
      "lon": 115.351219,
      "lat": 41.268343,
      "is_fortress_anchor": false,
      "is_tongzhou_anchor": false,
      "is_cross_boundary_anchor": false
    },
    {
      "station_id": "01951564",
      "system_id": "FXPP6440",
      "station_name": "战海",
      "basin_name": "河北北部内陆河",
      "admin_authority": "河北水文",
      "admin_division_name": "",
      "lon": 115.374763,
      "lat": 41.287339,
      "is_fortress_anchor": false,
      "is_tongzhou_anchor": false,
      "is_cross_boundary_anchor": false
    },
    {
      "station_id": "01951566",
      "system_id": "FXPP6441",
      "station_name": "车道沟",
      "basin_name": "河北北部内陆河",
      "admin_authority": "河北水文",
      "admin_division_name": "",
      "lon": 115.382594,
      "lat": 41.315122,
      "is_fortress_anchor": false,
      "is_tongzhou_anchor": false,
      "is_cross_boundary_anchor": false
    },
    {
      "station_id": "01951568",
      "system_id": "FXPP6442",
      "station_name": "二道坝",
      "basin_name": "河北北部内陆河",
      "admin_authority": "河北水文",
      "admin_division_name": "",
      "lon": 115.440648,
      "lat": 41.306549,
      "is_fortress_anchor": false,
      "is_tongzhou_anchor": false,
      "is_cross_boundary_anchor": false
    },
    {
      "station_id": "01951570",
      "system_id": "FXPP6443",
      "station_name": "阿不太沟",
      "basin_name": "河北北部内陆河",
      "admin_authority": "河北水文",
      "admin_division_name": "",
      "lon": 115.318931,
      "lat": 41.285483,
      "is_fortress_anchor": false,
      "is_tongzhou_anchor": false,
      "is_cross_boundary_anchor": false
    },
    {
      "station_id": "01951572",
      "system_id": "FXPP6444",
      "station_name": "脑包怀",
      "basin_name": "河北北部内陆河",
      "admin_authority": "河北水文",
      "admin_division_name": "",
      "lon": 115.347743,
      "lat": 41.300218,
      "is_fortress_anchor": false,
      "is_tongzhou_anchor": false,
      "is_cross_boundary_anchor": false
    },
    {
      "station_id": "01951574",
      "system_id": "FXPP6445",
      "station_name": "大三眼井",
      "basin_name": "河北北部内陆河",
      "admin_authority": "河北水文",
      "admin_division_name": "",
      "lon": 115.331464,
      "lat": 41.325736,
      "is_fortress_anchor": false,
      "is_tongzhou_anchor": false,
      "is_cross_boundary_anchor": false
    },
    {
      "station_id": "01951576",
      "system_id": "FXPP6446",
      "station_name": "马囫囵",
      "basin_name": "河北北部内陆河",
      "admin_authority": "河北水文",
      "admin_division_name": "",
      "lon": 115.396802,
      "lat": 41.362549,
      "is_fortress_anchor": false,
      "is_tongzhou_anchor": false,
      "is_cross_boundary_anchor": false
    },
    {
      "station_id": "01951578",
      "system_id": "FXPP6447",
      "station_name": "小三眼井",
      "basin_name": "河北北部内陆河",
      "admin_authority": "河北水文",
      "admin_division_name": "",
      "lon": 115.293687,
      "lat": 41.344888,
      "is_fortress_anchor": false,
      "is_tongzhou_anchor": false,
      "is_cross_boundary_anchor": false
    },
    {
      "station_id": "01951580",
      "system_id": "FXPP6448",
      "station_name": "许家营",
      "basin_name": "河北北部内陆河",
      "admin_authority": "河北水文",
      "admin_division_name": "",
      "lon": 115.319539,
      "lat": 41.358289,
      "is_fortress_anchor": false,
      "is_tongzhou_anchor": false,
      "is_cross_boundary_anchor": false
    },
    {
      "station_id": "01951582",
      "system_id": "FXPP6449",
      "station_name": "旗杆沟",
      "basin_name": "河北北部内陆河",
      "admin_authority": "河北水文",
      "admin_division_name": "",
      "lon": 115.358984,
      "lat": 41.369567,
      "is_fortress_anchor": false,
      "is_tongzhou_anchor": false,
      "is_cross_boundary_anchor": false
    },
    {
      "station_id": "01951586",
      "system_id": "FXPP6450",
      "station_name": "中盘道",
      "basin_name": "河北北部内陆河",
      "admin_authority": "河北水文",
      "admin_division_name": "",
      "lon": 115.358425,
      "lat": 41.397513,
      "is_fortress_anchor": false,
      "is_tongzhou_anchor": false,
      "is_cross_boundary_anchor": false
    },
    {
      "station_id": "01951590",
      "system_id": "FXPP6451",
      "station_name": "蔡家营",
      "basin_name": "河北北部内陆河",
      "admin_authority": "河北水文",
      "admin_division_name": "",
      "lon": 115.273442,
      "lat": 41.437525,
      "is_fortress_anchor": false,
      "is_tongzhou_anchor": false,
      "is_cross_boundary_anchor": false
    },
    {
      "station_id": "01951592",
      "system_id": "FXPP6452",
      "station_name": "芦家营",
      "basin_name": "河北北部内陆河",
      "admin_authority": "河北水文",
      "admin_division_name": "",
      "lon": 115.189385,
      "lat": 41.433826,
      "is_fortress_anchor": false,
      "is_tongzhou_anchor": false,
      "is_cross_boundary_anchor": false
    },
    {
      "station_id": "01951594",
      "system_id": "FXPP6453",
      "station_name": "二工地",
      "basin_name": "河北北部内陆河",
      "admin_authority": "河北水文",
      "admin_division_name": "",
      "lon": 115.211466,
      "lat": 41.459574,
      "is_fortress_anchor": false,
      "is_tongzhou_anchor": false,
      "is_cross_boundary_anchor": false
    },
    {
      "station_id": "01951596",
      "system_id": "FXPP6454",
      "station_name": "兴盛茂",
      "basin_name": "河北北部内陆河",
      "admin_authority": "河北水文",
      "admin_division_name": "",
      "lon": 115.250111,
      "lat": 41.461339,
      "is_fortress_anchor": false,
      "is_tongzhou_anchor": false,
      "is_cross_boundary_anchor": false
    },
    {
      "station_id": "01951597",
      "system_id": "FXPP6455",
      "station_name": "何家营",
      "basin_name": "河北北部内陆河",
      "admin_authority": "河北水文",
      "admin_division_name": "",
      "lon": 115.306554,
      "lat": 41.395453,
      "is_fortress_anchor": false,
      "is_tongzhou_anchor": false,
      "is_cross_boundary_anchor": false
    },
    {
      "station_id": "01951598",
      "system_id": "FXPP6456",
      "station_name": "三工地",
      "basin_name": "河北北部内陆河",
      "admin_authority": "河北水文",
      "admin_division_name": "",
      "lon": 115.185096,
      "lat": 41.494672,
      "is_fortress_anchor": false,
      "is_tongzhou_anchor": false,
      "is_cross_boundary_anchor": false
    },
    {
      "station_id": "01951700",
      "system_id": "FXPP6457",
      "station_name": "绿源",
      "basin_name": "河北北部内陆河",
      "admin_authority": "河北水文",
      "admin_division_name": "冀-沽源县",
      "lon": 115.096668,
      "lat": 41.522114,
      "is_fortress_anchor": false,
      "is_tongzhou_anchor": false,
      "is_cross_boundary_anchor": false
    },
    {
      "station_id": "01951708",
      "system_id": "FXPP6458",
      "station_name": "三号地",
      "basin_name": "河北北部内陆河",
      "admin_authority": "河北水文",
      "admin_division_name": "冀-沽源县",
      "lon": 115.004521,
      "lat": 41.607322,
      "is_fortress_anchor": false,
      "is_tongzhou_anchor": false,
      "is_cross_boundary_anchor": false
    },
    {
      "station_id": "01951714",
      "system_id": "FXPP6459",
      "station_name": "大井沟",
      "basin_name": "河北北部内陆河",
      "admin_authority": "河北水文",
      "admin_division_name": "冀-沽源县",
      "lon": 115.307101,
      "lat": 41.545527,
      "is_fortress_anchor": false,
      "is_tongzhou_anchor": false,
      "is_cross_boundary_anchor": false
    },
    {
      "station_id": "01951722",
      "system_id": "FXPP6460",
      "station_name": "好来沟",
      "basin_name": "河北北部内陆河",
      "admin_authority": "河北水文",
      "admin_division_name": "冀-沽源县",
      "lon": 115.402196,
      "lat": 41.400712,
      "is_fortress_anchor": false,
      "is_tongzhou_anchor": false,
      "is_cross_boundary_anchor": false
    },
    {
      "station_id": "01951724",
      "system_id": "FXPP6461",
      "station_name": "三家",
      "basin_name": "河北北部内陆河",
      "admin_authority": "河北水文",
      "admin_division_name": "冀-沽源县",
      "lon": 115.486387,
      "lat": 41.375844,
      "is_fortress_anchor": false,
      "is_tongzhou_anchor": false,
      "is_cross_boundary_anchor": false
    },
    {
      "station_id": "01951728",
      "system_id": "FXPP6462",
      "station_name": "新华",
      "basin_name": "河北北部内陆河",
      "admin_authority": "河北水文",
      "admin_division_name": "冀-沽源县",
      "lon": 115.340212,
      "lat": 41.676432,
      "is_fortress_anchor": false,
      "is_tongzhou_anchor": false,
      "is_cross_boundary_anchor": false
    },
    {
      "station_id": "01951732",
      "system_id": "FXPP6463",
      "station_name": "河东",
      "basin_name": "河北北部内陆河",
      "admin_authority": "河北水文",
      "admin_division_name": "冀-沽源县",
      "lon": 115.690694,
      "lat": 41.640786,
      "is_fortress_anchor": false,
      "is_tongzhou_anchor": false,
      "is_cross_boundary_anchor": false
    },
    {
      "station_id": "01951736",
      "system_id": "FXPP6464",
      "station_name": "阳坡",
      "basin_name": "河北北部内陆河",
      "admin_authority": "河北水文",
      "admin_division_name": "冀-沽源县",
      "lon": 115.820814,
      "lat": 41.370861,
      "is_fortress_anchor": false,
      "is_tongzhou_anchor": false,
      "is_cross_boundary_anchor": false
    },
    {
      "station_id": "01951737",
      "system_id": "FXPP6465",
      "station_name": "义合城",
      "basin_name": "河北北部内陆河",
      "admin_authority": "河北水文",
      "admin_division_name": "冀-沽源县",
      "lon": 115.723948,
      "lat": 41.570019,
      "is_fortress_anchor": false,
      "is_tongzhou_anchor": false,
      "is_cross_boundary_anchor": false
    },
    {
      "station_id": "01951742",
      "system_id": "FXPP6466",
      "station_name": "西豪堑",
      "basin_name": "河北北部内陆河",
      "admin_authority": "河北水文",
      "admin_division_name": "冀-沽源县",
      "lon": 115.46327,
      "lat": 41.735244,
      "is_fortress_anchor": false,
      "is_tongzhou_anchor": false,
      "is_cross_boundary_anchor": false
    },
    {
      "station_id": "1030100048",
      "system_id": "FXPP4757",
      "station_name": "永定河支流上沟口",
      "basin_name": "永定河流域",
      "admin_authority": "跨界沟",
      "admin_division_name": "门头沟区",
      "lon": 115.704057,
      "lat": 40.121156,
      "is_fortress_anchor": false,
      "is_tongzhou_anchor": false,
      "is_cross_boundary_anchor": false
    },
    {
      "station_id": "1030100049",
      "system_id": "FXPP4758",
      "station_name": "永定河支流沟间",
      "basin_name": "永定河流域",
      "admin_authority": "跨界沟",
      "admin_division_name": "门头沟区",
      "lon": 115.717533,
      "lat": 40.088454,
      "is_fortress_anchor": false,
      "is_tongzhou_anchor": false,
      "is_cross_boundary_anchor": false
    },
    {
      "station_id": "1030100050",
      "system_id": "FXPP4744",
      "station_name": "湫河上沟口",
      "basin_name": "永定河流域",
      "admin_authority": "跨界沟",
      "admin_division_name": "门头沟区",
      "lon": 115.858155,
      "lat": 40.119477,
      "is_fortress_anchor": false,
      "is_tongzhou_anchor": false,
      "is_cross_boundary_anchor": false
    },
    {
      "station_id": "1030100051",
      "system_id": "FXPP4743",
      "station_name": "湫河沟间",
      "basin_name": "永定河流域",
      "admin_authority": "跨界沟",
      "admin_division_name": "门头沟区",
      "lon": 115.813244,
      "lat": 40.124594,
      "is_fortress_anchor": false,
      "is_tongzhou_anchor": false,
      "is_cross_boundary_anchor": false
    },
    {
      "station_id": "1030100052",
      "system_id": "FXPP4745",
      "station_name": "区石羊沟上沟口一",
      "basin_name": "永定河流域",
      "admin_authority": "跨界沟",
      "admin_division_name": "",
      "lon": 115.541891,
      "lat": 40.104547,
      "is_fortress_anchor": false,
      "is_tongzhou_anchor": false,
      "is_cross_boundary_anchor": false
    },
    {
      "station_id": "1030100053",
      "system_id": "FXPP4747",
      "station_name": "区石羊沟上沟口二",
      "basin_name": "永定河流域",
      "admin_authority": "跨界沟",
      "admin_division_name": "门头沟区",
      "lon": 115.697266,
      "lat": 40.06822,
      "is_fortress_anchor": false,
      "is_tongzhou_anchor": false,
      "is_cross_boundary_anchor": false
    },
    {
      "station_id": "1030100054",
      "system_id": "FXPP4746",
      "station_name": "石羊沟沟间",
      "basin_name": "永定河流域",
      "admin_authority": "跨界沟",
      "admin_division_name": "",
      "lon": 115.558392,
      "lat": 40.109011,
      "is_fortress_anchor": false,
      "is_tongzhou_anchor": false,
      "is_cross_boundary_anchor": false
    },
    {
      "station_id": "1030100055",
      "system_id": "FXPP4703",
      "station_name": "拒马河支流2上沟口",
      "basin_name": "大清河流域",
      "admin_authority": "跨界沟",
      "admin_division_name": "房山区",
      "lon": 115.503637,
      "lat": 39.704834,
      "is_fortress_anchor": false,
      "is_tongzhou_anchor": false,
      "is_cross_boundary_anchor": false
    },
    {
      "station_id": "1030100056",
      "system_id": "FXPP4704",
      "station_name": "拒马河支流2沟间",
      "basin_name": "大清河流域",
      "admin_authority": "跨界沟",
      "admin_division_name": "房山区",
      "lon": 115.538281,
      "lat": 39.657273,
      "is_fortress_anchor": false,
      "is_tongzhou_anchor": false,
      "is_cross_boundary_anchor": false
    },
    {
      "station_id": "1030100057",
      "system_id": "FXPP4702",
      "station_name": "拒马河支流1上沟口",
      "basin_name": "大清河流域",
      "admin_authority": "跨界沟",
      "admin_division_name": "",
      "lon": 115.528367,
      "lat": 39.610753,
      "is_fortress_anchor": false,
      "is_tongzhou_anchor": false,
      "is_cross_boundary_anchor": false
    },
    {
      "station_id": "1030100058",
      "system_id": "FXPP4701",
      "station_name": "拒马河支流1沟间",
      "basin_name": "大清河流域",
      "admin_authority": "跨界沟",
      "admin_division_name": "房山区",
      "lon": 115.533174,
      "lat": 39.633197,
      "is_fortress_anchor": false,
      "is_tongzhou_anchor": false,
      "is_cross_boundary_anchor": false
    },
    {
      "station_id": "1030100059",
      "system_id": "FXPP4752",
      "station_name": "天河上沟口",
      "basin_name": "潮白河流域",
      "admin_authority": "跨界沟",
      "admin_division_name": "怀柔区",
      "lon": 116.41989,
      "lat": 40.899313,
      "is_fortress_anchor": false,
      "is_tongzhou_anchor": false,
      "is_cross_boundary_anchor": false
    },
    {
      "station_id": "1030100060",
      "system_id": "FXPP4751",
      "station_name": "天河沟间",
      "basin_name": "潮白河流域",
      "admin_authority": "跨界沟",
      "admin_division_name": "怀柔区",
      "lon": 116.42356,
      "lat": 40.891202,
      "is_fortress_anchor": false,
      "is_tongzhou_anchor": false,
      "is_cross_boundary_anchor": false
    },
    {
      "station_id": "1030100061",
      "system_id": "FXPP4750",
      "station_name": "汤河上沟口",
      "basin_name": "潮白河流域",
      "admin_authority": "跨界沟",
      "admin_division_name": "怀柔区",
      "lon": 116.609179,
      "lat": 40.979768,
      "is_fortress_anchor": false,
      "is_tongzhou_anchor": false,
      "is_cross_boundary_anchor": false
    },
    {
      "station_id": "1030100062",
      "system_id": "FXPP4749",
      "station_name": "汤河沟间",
      "basin_name": "潮白河流域",
      "admin_authority": "跨界沟",
      "admin_division_name": "怀柔区",
      "lon": 116.62583,
      "lat": 40.97008,
      "is_fortress_anchor": false,
      "is_tongzhou_anchor": false,
      "is_cross_boundary_anchor": false
    },
    {
      "station_id": "1030100063",
      "system_id": "FXPP4721",
      "station_name": "潮河支流上沟口",
      "basin_name": "潮白河流域",
      "admin_authority": "跨界沟",
      "admin_division_name": "密云区",
      "lon": 117.15429,
      "lat": 40.689757,
      "is_fortress_anchor": false,
      "is_tongzhou_anchor": false,
      "is_cross_boundary_anchor": false
    },
    {
      "station_id": "1030100064",
      "system_id": "FXPP4722",
      "station_name": "潮河支流沟间",
      "basin_name": "潮白河流域",
      "admin_authority": "跨界沟",
      "admin_division_name": "密云区",
      "lon": 117.119797,
      "lat": 40.678417,
      "is_fortress_anchor": false,
      "is_tongzhou_anchor": false,
      "is_cross_boundary_anchor": false
    },
    {
      "station_id": "1030100065",
      "system_id": "FXPP4709",
      "station_name": "安达木河上沟口",
      "basin_name": "潮白河流域",
      "admin_authority": "跨界沟",
      "admin_division_name": "密云区",
      "lon": 117.447863,
      "lat": 40.671427,
      "is_fortress_anchor": false,
      "is_tongzhou_anchor": false,
      "is_cross_boundary_anchor": false
    },
    {
      "station_id": "1030100066",
      "system_id": "FXPP4711",
      "station_name": "安达木河沟间一",
      "basin_name": "潮白河流域",
      "admin_authority": "跨界沟",
      "admin_division_name": "密云区",
      "lon": 117.440412,
      "lat": 40.66065,
      "is_fortress_anchor": false,
      "is_tongzhou_anchor": false,
      "is_cross_boundary_anchor": false
    },
    {
      "station_id": "1030100067",
      "system_id": "FXPP4710",
      "station_name": "安达木河沟间二",
      "basin_name": "潮白河流域",
      "admin_authority": "跨界沟",
      "admin_division_name": "密云区",
      "lon": 117.426695,
      "lat": 40.649551,
      "is_fortress_anchor": false,
      "is_tongzhou_anchor": false,
      "is_cross_boundary_anchor": false
    },
    {
      "station_id": "1030100068",
      "system_id": "FXPP4712",
      "station_name": "安达木河支流一上沟口",
      "basin_name": "潮白河流域",
      "admin_authority": "跨界沟",
      "admin_division_name": "密云区",
      "lon": 117.343911,
      "lat": 40.647099,
      "is_fortress_anchor": false,
      "is_tongzhou_anchor": false,
      "is_cross_boundary_anchor": false
    },
    {
      "station_id": "1030100069",
      "system_id": "FXPP4713",
      "station_name": "安达木河支流一沟间",
      "basin_name": "潮白河流域",
      "admin_authority": "跨界沟",
      "admin_division_name": "密云区",
      "lon": 117.497017,
      "lat": 40.647947,
      "is_fortress_anchor": false,
      "is_tongzhou_anchor": false,
      "is_cross_boundary_anchor": false
    },
    {
      "station_id": "1030100070",
      "system_id": "FXPP4715",
      "station_name": "安达木河支流二上沟口",
      "basin_name": "潮白河流域",
      "admin_authority": "跨界沟",
      "admin_division_name": "",
      "lon": 117.421771,
      "lat": 40.630582,
      "is_fortress_anchor": false,
      "is_tongzhou_anchor": false,
      "is_cross_boundary_anchor": false
    },
    {
      "station_id": "1030100071",
      "system_id": "FXPP4714",
      "station_name": "安达木河支流二沟间",
      "basin_name": "潮白河流域",
      "admin_authority": "跨界沟",
      "admin_division_name": "密云区",
      "lon": 117.418445,
      "lat": 40.643392,
      "is_fortress_anchor": false,
      "is_tongzhou_anchor": false,
      "is_cross_boundary_anchor": false
    },
    {
      "station_id": "1030100072",
      "system_id": "FXPP4756",
      "station_name": "小汤河上沟口",
      "basin_name": "潮白河流域",
      "admin_authority": "跨界沟",
      "admin_division_name": "密云区",
      "lon": 117.25263,
      "lat": 40.645839,
      "is_fortress_anchor": false,
      "is_tongzhou_anchor": false,
      "is_cross_boundary_anchor": false
    },
    {
      "station_id": "1030100073",
      "system_id": "FXPP4755",
      "station_name": "小汤河沟间",
      "basin_name": "潮白河流域",
      "admin_authority": "跨界沟",
      "admin_division_name": "密云区",
      "lon": 117.225347,
      "lat": 40.657115,
      "is_fortress_anchor": false,
      "is_tongzhou_anchor": false,
      "is_cross_boundary_anchor": false
    },
    {
      "station_id": "1030100074",
      "system_id": "FXPP4741",
      "station_name": "清水河上沟口",
      "basin_name": "潮白河流域",
      "admin_authority": "跨界沟",
      "admin_division_name": "密云区",
      "lon": 117.229848,
      "lat": 40.42041,
      "is_fortress_anchor": false,
      "is_tongzhou_anchor": false,
      "is_cross_boundary_anchor": false
    },
    {
      "station_id": "1030100075",
      "system_id": "FXPP4742",
      "station_name": "清水河沟间",
      "basin_name": "潮白河流域",
      "admin_authority": "跨界沟",
      "admin_division_name": "密云区",
      "lon": 117.2028,
      "lat": 40.436675,
      "is_fortress_anchor": false,
      "is_tongzhou_anchor": false,
      "is_cross_boundary_anchor": false
    },
    {
      "station_id": "1030100076",
      "system_id": "FXPP4723",
      "station_name": "大黄岩河上沟口",
      "basin_name": "潮白河流域",
      "admin_authority": "跨界沟",
      "admin_division_name": "密云区",
      "lon": 117.207285,
      "lat": 40.519914,
      "is_fortress_anchor": false,
      "is_tongzhou_anchor": false,
      "is_cross_boundary_anchor": false
    },